[
  {
    "id": 1,
    "airport": "Goroka Airport",
    "city": "Goroka",
    "country": "Papua New Guinea",
    "code": "GKA",
    "late": -6.081689835,
    "long": 145.3919983,
    "region": "Pacific/Port_Moresby",
    "status": 1
  },
  {
    "id": 2,
    "airport": "Madang Airport",
    "city": "Madang",
    "country": "Papua New Guinea",
    "code": "MAG",
    "late": -5.207079887,
    "long": 145.7890015,
    "region": "Pacific/Port_Moresby",
    "status": 1
  },
  {
    "id": 3,
    "airport": "Mount Hagen Kagamuga Airport",
    "city": "Mount Hagen",
    "country": "Papua New Guinea",
    "code": "HGU",
    "late": -5.826789856,
    "long": 144.2960052,
    "region": "Pacific/Port_Moresby",
    "status": 1
  },
  {
    "id": 4,
    "airport": "Nadzab Airport",
    "city": "Nadzab",
    "country": "Papua New Guinea",
    "code": "LAE",
    "late": -6.569803,
    "long": 146.725977,
    "region": "Pacific/Port_Moresby",
    "status": 1
  },
  {
    "id": 5,
    "airport": "Port Moresby Jacksons International Airport",
    "city": "Port Moresby",
    "country": "Papua New Guinea",
    "code": "POM",
    "late": -9.443380356,
    "long": 147.2200012,
    "region": "Pacific/Port_Moresby",
    "status": 1
  },
  {
    "id": 6,
    "airport": "Wewak International Airport",
    "city": "Wewak",
    "country": "Papua New Guinea",
    "code": "WWK",
    "late": -3.583830118,
    "long": 143.6690063,
    "region": "Pacific/Port_Moresby",
    "status": 1
  },
  {
    "id": 7,
    "airport": "Narsarsuaq Airport",
    "city": "Narssarssuaq",
    "country": "Greenland",
    "code": "UAK",
    "late": 61.16049957,
    "long": -45.42599869,
    "region": "America/Godthab",
    "status": 1
  },
  {
    "id": 8,
    "airport": "Godthaab / Nuuk Airport",
    "city": "Godthaab",
    "country": "Greenland",
    "code": "GOH",
    "late": 64.19090271,
    "long": -51.67810059,
    "region": "America/Godthab",
    "status": 1
  },
  {
    "id": 9,
    "airport": "Kangerlussuaq Airport",
    "city": "Sondrestrom",
    "country": "Greenland",
    "code": "SFJ",
    "late": 67.0122219,
    "long": -50.71160316,
    "region": "America/Godthab",
    "status": 1
  },
  {
    "id": 10,
    "airport": "Thule Air Base",
    "city": "Thule",
    "country": "Greenland",
    "code": "THU",
    "late": 76.53119659,
    "long": -68.70320129,
    "region": "America/Thule",
    "status": 1
  },
  {
    "id": 11,
    "airport": "Akureyri Airport",
    "city": "Akureyri",
    "country": "Iceland",
    "code": "AEY",
    "late": 65.66000366,
    "long": -18.0727005,
    "region": "Atlantic/Reykjavik",
    "status": 1
  },
  {
    "id": 12,
    "airport": "Egilsstaðir Airport",
    "city": "Egilsstadir",
    "country": "Iceland",
    "code": "EGS",
    "late": 65.28330231,
    "long": -14.40139961,
    "region": "Atlantic/Reykjavik",
    "status": 1
  },
  {
    "id": 13,
    "airport": "Hornafjörður Airport",
    "city": "Hofn",
    "country": "Iceland",
    "code": "HFN",
    "late": 64.295601,
    "long": -15.2272,
    "region": "Atlantic/Reykjavik",
    "status": 1
  },
  {
    "id": 14,
    "airport": "Húsavík Airport",
    "city": "Husavik",
    "country": "Iceland",
    "code": "HZK",
    "late": 65.952301,
    "long": -17.426001,
    "region": "Atlantic/Reykjavik",
    "status": 1
  },
  {
    "id": 15,
    "airport": "Ísafjörður Airport",
    "city": "Isafjordur",
    "country": "Iceland",
    "code": "IFJ",
    "late": 66.05809784,
    "long": -23.13529968,
    "region": "Atlantic/Reykjavik",
    "status": 1
  },
  {
    "id": 16,
    "airport": "Keflavik International Airport",
    "city": "Keflavik",
    "country": "Iceland",
    "code": "KEF",
    "late": 63.98500061,
    "long": -22.60560036,
    "region": "Atlantic/Reykjavik",
    "status": 1
  },
  {
    "id": 17,
    "airport": "Patreksfjörður Airport",
    "city": "Patreksfjordur",
    "country": "Iceland",
    "code": "PFJ",
    "late": 65.555801,
    "long": -23.965,
    "region": "Atlantic/Reykjavik",
    "status": 1
  },
  {
    "id": 18,
    "airport": "Reykjavik Airport",
    "city": "Reykjavik",
    "country": "Iceland",
    "code": "RKV",
    "late": 64.12999725,
    "long": -21.94059944,
    "region": "Atlantic/Reykjavik",
    "status": 1
  },
  {
    "id": 19,
    "airport": "Siglufjörður Airport",
    "city": "Siglufjordur",
    "country": "Iceland",
    "code": "SIJ",
    "late": 66.133301,
    "long": -18.9167,
    "region": "Atlantic/Reykjavik",
    "status": 1
  },
  {
    "id": 20,
    "airport": "Vestmannaeyjar Airport",
    "city": "Vestmannaeyjar",
    "country": "Iceland",
    "code": "VEY",
    "late": 63.42430115,
    "long": -20.27890015,
    "region": "Atlantic/Reykjavik",
    "status": 1
  },
  {
    "id": 21,
    "airport": "Sault Ste Marie Airport",
    "city": "Sault Sainte Marie",
    "country": "Canada",
    "code": "YAM",
    "late": 46.48500061,
    "long": -84.50939941,
    "region": "America/Toronto",
    "status": 1
  },
  {
    "id": 24,
    "airport": "St. Anthony Airport",
    "city": "St. Anthony",
    "country": "Canada",
    "code": "YAY",
    "late": 51.39189911,
    "long": -56.08309937,
    "region": "America/St_Johns",
    "status": 1
  },
  {
    "id": 25,
    "airport": "Tofino / Long Beach Airport",
    "city": "Tofino",
    "country": "Canada",
    "code": "YAZ",
    "late": 49.079833,
    "long": -125.775583,
    "region": "America/Vancouver",
    "status": 1
  },
  {
    "id": 26,
    "airport": "Kugaaruk Airport",
    "city": "Pelly Bay",
    "country": "Canada",
    "code": "YBB",
    "late": 68.534401,
    "long": -89.808098,
    "region": "America/Edmonton",
    "status": 1
  },
  {
    "id": 27,
    "airport": "Baie Comeau Airport",
    "city": "Baie Comeau",
    "country": "Canada",
    "code": "YBC",
    "late": 49.13249969,
    "long": -68.20439911,
    "region": "America/Toronto",
    "status": 1
  },
  {
    "id": 28,
    "airport": "CFB Bagotville",
    "city": "Bagotville",
    "country": "Canada",
    "code": "YBG",
    "late": 48.33060074,
    "long": -70.99639893,
    "region": "America/Toronto",
    "status": 1
  },
  {
    "id": 29,
    "airport": "Baker Lake Airport",
    "city": "Baker Lake",
    "country": "Canada",
    "code": "YBK",
    "late": 64.29889679,
    "long": -96.07779694,
    "region": "America/Winnipeg",
    "status": 1
  },
  {
    "id": 30,
    "airport": "Campbell River Airport",
    "city": "Campbell River",
    "country": "Canada",
    "code": "YBL",
    "late": 49.95080185,
    "long": -125.2710037,
    "region": "America/Vancouver",
    "status": 1
  },
  {
    "id": 31,
    "airport": "Brandon Municipal Airport",
    "city": "Brandon",
    "country": "Canada",
    "code": "YBR",
    "late": 49.91,
    "long": -99.951897,
    "region": "America/Winnipeg",
    "status": 1
  },
  {
    "id": 32,
    "airport": "Cambridge Bay Airport",
    "city": "Cambridge Bay",
    "country": "Canada",
    "code": "YCB",
    "late": 69.10810089,
    "long": -105.1380005,
    "region": "America/Edmonton",
    "status": 1
  },
  {
    "id": 33,
    "airport": "Nanaimo Airport",
    "city": "Nanaimo",
    "country": "Canada",
    "code": "YCD",
    "late": 49.05497022,
    "long": -123.8698626,
    "region": "America/Vancouver",
    "status": 1
  },
  {
    "id": 34,
    "airport": "Castlegar/West Kootenay Regional Airport",
    "city": "Castlegar",
    "country": "Canada",
    "code": "YCG",
    "late": 49.29639816,
    "long": -117.6320038,
    "region": "America/Vancouver",
    "status": 1
  },
  {
    "id": 35,
    "airport": "Miramichi Airport",
    "city": "Chatham",
    "country": "Canada",
    "code": "YCH",
    "late": 47.007801,
    "long": -65.449203,
    "region": "America/Halifax",
    "status": 1
  },
  {
    "id": 36,
    "airport": "Charlo Airport",
    "city": "Charlo",
    "country": "Canada",
    "code": "YCL",
    "late": 47.990799,
    "long": -66.330299,
    "region": "America/Halifax",
    "status": 1
  },
  {
    "id": 37,
    "airport": "Kugluktuk Airport",
    "city": "Coppermine",
    "country": "Canada",
    "code": "YCO",
    "late": 67.816704,
    "long": -115.143997,
    "region": "America/Edmonton",
    "status": 1
  },
  {
    "id": 38,
    "airport": "Coronation Airport",
    "city": "Coronation",
    "country": "Canada",
    "code": "YCT",
    "late": 52.07500076,
    "long": -111.4449997,
    "region": "America/Edmonton",
    "status": 1
  },
  {
    "id": 39,
    "airport": "Chilliwack Airport",
    "city": "Chilliwack",
    "country": "Canada",
    "code": "YCW",
    "late": 49.15280151,
    "long": -121.939003,
    "region": "America/Vancouver",
    "status": 1
  },
  {
    "id": 40,
    "airport": "Clyde River Airport",
    "city": "Clyde River",
    "country": "Canada",
    "code": "YCY",
    "late": 70.48609924,
    "long": -68.51670074,
    "region": "America/Toronto",
    "status": 1
  },
  {
    "id": 41,
    "airport": "Coral Harbour Airport",
    "city": "Coral Harbour",
    "country": "Canada",
    "code": "YZS",
    "late": 64.19329834,
    "long": -83.35939789,
    "region": "America/Coral_Harbour",
    "status": 1
  },
  {
    "id": 42,
    "airport": "Dawson City Airport",
    "city": "Dawson",
    "country": "Canada",
    "code": "YDA",
    "late": 64.04309845,
    "long": -139.128006,
    "region": "America/Vancouver",
    "status": 1
  },
  {
    "id": 43,
    "airport": "Burwash Airport",
    "city": "Burwash",
    "country": "Canada",
    "code": "YDB",
    "late": 61.37110138,
    "long": -139.0410004,
    "region": "America/Vancouver",
    "status": 1
  },
  {
    "id": 45,
    "airport": "Deer Lake Airport",
    "city": "Deer Lake",
    "country": "Canada",
    "code": "YDF",
    "late": 49.21080017,
    "long": -57.39139938,
    "region": "America/St_Johns",
    "status": 1
  },
  {
    "id": 46,
    "airport": "Dease Lake Airport",
    "city": "Dease Lake",
    "country": "Canada",
    "code": "YDL",
    "late": 58.42219925,
    "long": -130.0319977,
    "region": "America/Vancouver",
    "status": 1
  },
  {
    "id": 47,
    "airport": "Dauphin Barker Airport",
    "city": "Dauphin",
    "country": "Canada",
    "code": "YDN",
    "late": 51.10079956,
    "long": -100.052002,
    "region": "America/Winnipeg",
    "status": 1
  },
  {
    "id": 48,
    "airport": "Dawson Creek Airport",
    "city": "Dawson Creek",
    "country": "Canada",
    "code": "YDQ",
    "late": 55.74229813,
    "long": -120.1829987,
    "region": "America/Dawson_Creek",
    "status": 1
  },
  {
    "id": 49,
    "airport": "Edmonton International Airport",
    "city": "Edmonton",
    "country": "Canada",
    "code": "YEG",
    "late": 53.30970001,
    "long": -113.5800018,
    "region": "America/Edmonton",
    "status": 1
  },
  {
    "id": 50,
    "airport": "Arviat Airport",
    "city": "Eskimo Point",
    "country": "Canada",
    "code": "YEK",
    "late": 61.09420013,
    "long": -94.07080078,
    "region": "America/Winnipeg",
    "status": 1
  },
  {
    "id": 51,
    "airport": "Estevan Airport",
    "city": "Estevan",
    "country": "Canada",
    "code": "YEN",
    "late": 49.21030045,
    "long": -102.9660034,
    "region": "America/Regina",
    "status": 1
  },
  {
    "id": 52,
    "airport": "Edson Airport",
    "city": "Edson",
    "country": "Canada",
    "code": "YET",
    "late": 53.57889938,
    "long": -116.4649963,
    "region": "America/Edmonton",
    "status": 1
  },
  {
    "id": 53,
    "airport": "Eureka Airport",
    "city": "Eureka",
    "country": "Canada",
    "code": "YEU",
    "late": 79.99469757,
    "long": -85.81420136,
    "region": "America/Winnipeg",
    "status": 1
  },
  {
    "id": 54,
    "airport": "Inuvik Mike Zubko Airport",
    "city": "Inuvik",
    "country": "Canada",
    "code": "YEV",
    "late": 68.30419922,
    "long": -133.4830017,
    "region": "America/Edmonton",
    "status": 1
  },
  {
    "id": 55,
    "airport": "Iqaluit Airport",
    "city": "Iqaluit",
    "country": "Canada",
    "code": "YFB",
    "late": 63.756402,
    "long": -68.555801,
    "region": "America/Toronto",
    "status": 1
  },
  {
    "id": 56,
    "airport": "Fredericton Airport",
    "city": "Fredericton",
    "country": "Canada",
    "code": "YFC",
    "late": 45.8689003,
    "long": -66.53720093,
    "region": "America/Halifax",
    "status": 1
  },
  {
    "id": 57,
    "airport": "Forestville Airport",
    "city": "Forestville",
    "country": "Canada",
    "code": "YFE",
    "late": 48.74610138,
    "long": -69.09719849,
    "region": "America/Toronto",
    "status": 1
  },
  {
    "id": 58,
    "airport": "Flin Flon Airport",
    "city": "Flin Flon",
    "country": "Canada",
    "code": "YFO",
    "late": 54.67810059,
    "long": -101.6819992,
    "region": "America/Winnipeg",
    "status": 1
  },
  {
    "id": 59,
    "airport": "Fort Resolution Airport",
    "city": "Fort Resolution",
    "country": "Canada",
    "code": "YFR",
    "late": 61.18080139,
    "long": -113.6900024,
    "region": "America/Edmonton",
    "status": 1
  },
  {
    "id": 60,
    "airport": "Fort Simpson Airport",
    "city": "Fort Simpson",
    "country": "Canada",
    "code": "YFS",
    "late": 61.7602005,
    "long": -121.2369995,
    "region": "America/Edmonton",
    "status": 1
  },
  {
    "id": 61,
    "airport": "Kingston Norman Rogers Airport",
    "city": "Kingston",
    "country": "Canada",
    "code": "YGK",
    "late": 44.22529984,
    "long": -76.59690094,
    "region": "America/Toronto",
    "status": 1
  },
  {
    "id": 62,
    "airport": "La Grande Rivière Airport",
    "city": "La Grande Riviere",
    "country": "Canada",
    "code": "YGL",
    "late": 53.62530136,
    "long": -77.70420074,
    "region": "America/Toronto",
    "status": 1
  },
  {
    "id": 63,
    "airport": "Gaspé (Michel-Pouliot) Airport",
    "city": "Gaspe",
    "country": "Canada",
    "code": "YGP",
    "late": 48.77529907,
    "long": -64.47859955,
    "region": "America/Toronto",
    "status": 1
  },
  {
    "id": 64,
    "airport": "Geraldton Greenstone Regional Airport",
    "city": "Geraldton",
    "country": "Canada",
    "code": "YGQ",
    "late": 49.77830124,
    "long": -86.93939972,
    "region": "America/Toronto",
    "status": 1
  },
  {
    "id": 65,
    "airport": "Îles-de-la-Madeleine Airport",
    "city": "Iles De La Madeleine",
    "country": "Canada",
    "code": "YGR",
    "late": 47.42470169,
    "long": -61.77809906,
    "region": "America/Toronto",
    "status": 1
  },
  {
    "id": 66,
    "airport": "Hudson Bay Airport",
    "city": "Hudson Bay",
    "country": "Canada",
    "code": "YHB",
    "late": 52.81669998,
    "long": -102.310997,
    "region": "America/Regina",
    "status": 1
  },
  {
    "id": 67,
    "airport": "Dryden Regional Airport",
    "city": "Dryden",
    "country": "Canada",
    "code": "YHD",
    "late": 49.831699,
    "long": -92.744202,
    "region": "America/Winnipeg",
    "status": 1
  },
  {
    "id": 68,
    "airport": "Ulukhaktok Holman Airport",
    "city": "Holman Island",
    "country": "Canada",
    "code": "YHI",
    "late": 70.76280212,
    "long": -117.8059998,
    "region": "America/Edmonton",
    "status": 1
  },
  {
    "id": 69,
    "airport": "Gjoa Haven Airport",
    "city": "Gjoa Haven",
    "country": "Canada",
    "code": "YHK",
    "late": 68.63559723,
    "long": -95.84970093,
    "region": "America/Edmonton",
    "status": 1
  },
  {
    "id": 70,
    "airport": "John C. Munro Hamilton International Airport",
    "city": "Hamilton",
    "country": "Canada",
    "code": "YHM",
    "late": 43.17359924,
    "long": -79.93499756,
    "region": "America/Toronto",
    "status": 1
  },
  {
    "id": 71,
    "airport": "Montréal / Saint-Hubert Airport",
    "city": "Montreal",
    "country": "Canada",
    "code": "YHU",
    "late": 45.51750183,
    "long": -73.41690063,
    "region": "America/Toronto",
    "status": 1
  },
  {
    "id": 72,
    "airport": "Hay River / Merlyn Carter Airport",
    "city": "Hay River",
    "country": "Canada",
    "code": "YHY",
    "late": 60.83969879,
    "long": -115.7829971,
    "region": "America/Edmonton",
    "status": 1
  },
  {
    "id": 73,
    "airport": "Halifax / Stanfield International Airport",
    "city": "Halifax",
    "country": "Canada",
    "code": "YHZ",
    "late": 44.88079834,
    "long": -63.50859833,
    "region": "America/Halifax",
    "status": 1
  },
  {
    "id": 74,
    "airport": "Atikokan Municipal Airport",
    "city": "Atikokan",
    "country": "Canada",
    "code": "YIB",
    "late": 48.77389908,
    "long": -91.63860321,
    "region": "America/Coral_Harbour",
    "status": 1
  },
  {
    "id": 75,
    "airport": "Pond Inlet Airport",
    "city": "Pond Inlet",
    "country": "Canada",
    "code": "YIO",
    "late": 72.6832962,
    "long": -77.96669769,
    "region": "America/Toronto",
    "status": 1
  },
  {
    "id": 76,
    "airport": "St Jean Airport",
    "city": "St. Jean",
    "country": "Canada",
    "code": "YJN",
    "late": 45.29439926,
    "long": -73.28109741,
    "region": "America/Toronto",
    "status": 1
  },
  {
    "id": 77,
    "airport": "Stephenville Airport",
    "city": "Stephenville",
    "country": "Canada",
    "code": "YJT",
    "late": 48.5442009,
    "long": -58.54999924,
    "region": "America/St_Johns",
    "status": 1
  },
  {
    "id": 78,
    "airport": "Kamloops Airport",
    "city": "Kamloops",
    "country": "Canada",
    "code": "YKA",
    "late": 50.70220184,
    "long": -120.4440002,
    "region": "America/Vancouver",
    "status": 1
  },
  {
    "id": 79,
    "airport": "Waterloo Airport",
    "city": "Waterloo",
    "country": "Canada",
    "code": "YKF",
    "late": 43.46080017,
    "long": -80.37860107,
    "region": "America/Toronto",
    "status": 1
  },
  {
    "id": 80,
    "airport": "Schefferville Airport",
    "city": "Schefferville",
    "country": "Canada",
    "code": "YKL",
    "late": 54.80530167,
    "long": -66.80529785,
    "region": "America/Toronto",
    "status": 1
  },
  {
    "id": 81,
    "airport": "Kindersley Airport",
    "city": "Kindersley",
    "country": "Canada",
    "code": "YKY",
    "late": 51.51750183,
    "long": -109.1809998,
    "region": "America/Regina",
    "status": 1
  },
  {
    "id": 82,
    "airport": "Buttonville Municipal Airport",
    "city": "Toronto",
    "country": "Canada",
    "code": "YKZ",
    "late": 43.86220169,
    "long": -79.37000275,
    "region": "America/Toronto",
    "status": 1
  },
  {
    "id": 83,
    "airport": "Chapleau Airport",
    "city": "Chapleau",
    "country": "Canada",
    "code": "YLD",
    "late": 47.81999969,
    "long": -83.34670258,
    "region": "America/Toronto",
    "status": 1
  },
  {
    "id": 84,
    "airport": "Meadow Lake Airport",
    "city": "Meadow Lake",
    "country": "Canada",
    "code": "YLJ",
    "late": 54.12530136,
    "long": -108.5230026,
    "region": "America/Regina",
    "status": 1
  },
  {
    "id": 85,
    "airport": "Lloydminster Airport",
    "city": "Lloydminster",
    "country": "Canada",
    "code": "YLL",
    "late": 53.30920029,
    "long": -110.072998,
    "region": "America/Edmonton",
    "status": 1
  },
  {
    "id": 86,
    "airport": "Alert Airport",
    "city": "Alert",
    "country": "Canada",
    "code": "YLT",
    "late": 82.51779938,
    "long": -62.2806015,
    "region": "America/Toronto",
    "status": 1
  },
  {
    "id": 87,
    "airport": "Kelowna International Airport",
    "city": "Kelowna",
    "country": "Canada",
    "code": "YLW",
    "late": 49.95610046,
    "long": -119.3779984,
    "region": "America/Vancouver",
    "status": 1
  },
  {
    "id": 88,
    "airport": "Mayo Airport",
    "city": "Mayo",
    "country": "Canada",
    "code": "YMA",
    "late": 63.61640167,
    "long": -135.8679962,
    "region": "America/Vancouver",
    "status": 1
  },
  {
    "id": 89,
    "airport": "Moose Jaw Air Vice Marshal C. M. McEwen Airport",
    "city": "Moose Jaw",
    "country": "Canada",
    "code": "YMJ",
    "late": 50.33029938,
    "long": -105.5589981,
    "region": "America/Regina",
    "status": 1
  },
  {
    "id": 90,
    "airport": "Fort McMurray Airport",
    "city": "Fort Mcmurray",
    "country": "Canada",
    "code": "YMM",
    "late": 56.65330124,
    "long": -111.2220001,
    "region": "America/Edmonton",
    "status": 1
  },
  {
    "id": 91,
    "airport": "Moosonee Airport",
    "city": "Moosonee",
    "country": "Canada",
    "code": "YMO",
    "late": 51.29109955,
    "long": -80.60780334,
    "region": "America/Toronto",
    "status": 1
  },
  {
    "id": 92,
    "airport": "Maniwaki Airport",
    "city": "Maniwaki",
    "country": "Canada",
    "code": "YMW",
    "late": 46.27280045,
    "long": -75.99060059,
    "region": "America/Toronto",
    "status": 1
  },
  {
    "id": 93,
    "airport": "Montreal International (Mirabel) Airport",
    "city": "Montreal",
    "country": "Canada",
    "code": "YMX",
    "late": 45.679501,
    "long": -74.038696,
    "region": "America/Toronto",
    "status": 1
  },
  {
    "id": 94,
    "airport": "Natashquan Airport",
    "city": "Natashquan",
    "country": "Canada",
    "code": "YNA",
    "late": 50.18999863,
    "long": -61.78919983,
    "region": "America/Toronto",
    "status": 1
  },
  {
    "id": 95,
    "airport": "Ottawa / Gatineau Airport",
    "city": "Gatineau",
    "country": "Canada",
    "code": "YND",
    "late": 45.52170181,
    "long": -75.56359863,
    "region": "America/Toronto",
    "status": 1
  },
  {
    "id": 96,
    "airport": "Matagami Airport",
    "city": "Matagami",
    "country": "Canada",
    "code": "YNM",
    "late": 49.76169968,
    "long": -77.80280304,
    "region": "America/Toronto",
    "status": 1
  },
  {
    "id": 97,
    "airport": "Old Crow Airport",
    "city": "Old Crow",
    "country": "Canada",
    "code": "YOC",
    "late": 67.57060242,
    "long": -139.8390045,
    "region": "America/Vancouver",
    "status": 1
  },
  {
    "id": 98,
    "airport": "CFB Cold Lake",
    "city": "Cold Lake",
    "country": "Canada",
    "code": "YOD",
    "late": 54.40499878,
    "long": -110.2789993,
    "region": "America/Edmonton",
    "status": 1
  },
  {
    "id": 99,
    "airport": "High Level Airport",
    "city": "High Level",
    "country": "Canada",
    "code": "YOJ",
    "late": 58.62139893,
    "long": -117.1650009,
    "region": "America/Edmonton",
    "status": 1
  },
  {
    "id": 100,
    "airport": "Ottawa Macdonald-Cartier International Airport",
    "city": "Ottawa",
    "country": "Canada",
    "code": "YOW",
    "late": 45.32249832,
    "long": -75.66919708,
    "region": "America/Toronto",
    "status": 1
  },
  {
    "id": 101,
    "airport": "Prince Albert Glass Field",
    "city": "Prince Albert",
    "country": "Canada",
    "code": "YPA",
    "late": 53.21419907,
    "long": -105.6729965,
    "region": "America/Regina",
    "status": 1
  },
  {
    "id": 102,
    "airport": "Peace River Airport",
    "city": "Peace River",
    "country": "Canada",
    "code": "YPE",
    "late": 56.226898,
    "long": -117.446999,
    "region": "America/Edmonton",
    "status": 1
  },
  {
    "id": 103,
    "airport": "Southport Airport",
    "city": "Portage-la-prairie",
    "country": "Canada",
    "code": "YPG",
    "late": 49.903099,
    "long": -98.273817,
    "region": "America/Winnipeg",
    "status": 1
  },
  {
    "id": 105,
    "airport": "Pickle Lake Airport",
    "city": "Pickle Lake",
    "country": "Canada",
    "code": "YPL",
    "late": 51.44639969,
    "long": -90.21420288,
    "region": "America/Coral_Harbour",
    "status": 1
  },
  {
    "id": 106,
    "airport": "Port Menier Airport",
    "city": "Port Menier",
    "country": "Canada",
    "code": "YPN",
    "late": 49.83639908,
    "long": -64.28859711,
    "region": "America/Toronto",
    "status": 1
  },
  {
    "id": 107,
    "airport": "Peterborough Airport",
    "city": "Peterborough",
    "country": "Canada",
    "code": "YPQ",
    "late": 44.22999954,
    "long": -78.36329651,
    "region": "America/Toronto",
    "status": 1
  },
  {
    "id": 108,
    "airport": "Prince Rupert Airport",
    "city": "Prince Pupert",
    "country": "Canada",
    "code": "YPR",
    "late": 54.28609848,
    "long": -130.4450073,
    "region": "America/Vancouver",
    "status": 1
  },
  {
    "id": 109,
    "airport": "Fort Chipewyan Airport",
    "city": "Fort Chipewyan",
    "country": "Canada",
    "code": "YPY",
    "late": 58.76720047,
    "long": -111.1169968,
    "region": "America/Edmonton",
    "status": 1
  },
  {
    "id": 110,
    "airport": "Muskoka Airport",
    "city": "Muskoka",
    "country": "Canada",
    "code": "YQA",
    "late": 44.97470093,
    "long": -79.30329895,
    "region": "America/Toronto",
    "status": 1
  },
  {
    "id": 111,
    "airport": "Quebec Jean Lesage International Airport",
    "city": "Quebec",
    "country": "Canada",
    "code": "YQB",
    "late": 46.7911,
    "long": -71.393303,
    "region": "America/Toronto",
    "status": 1
  },
  {
    "id": 112,
    "airport": "Red Deer Regional Airport",
    "city": "Red Deer Industrial",
    "country": "Canada",
    "code": "YQF",
    "late": 52.18220139,
    "long": -113.8939972,
    "region": "America/Edmonton",
    "status": 1
  },
  {
    "id": 113,
    "airport": "Windsor Airport",
    "city": "Windsor",
    "country": "Canada",
    "code": "YQG",
    "late": 42.27560043,
    "long": -82.95559692,
    "region": "America/Toronto",
    "status": 1
  },
  {
    "id": 114,
    "airport": "Watson Lake Airport",
    "city": "Watson Lake",
    "country": "Canada",
    "code": "YQH",
    "late": 60.11640167,
    "long": -128.8220062,
    "region": "America/Vancouver",
    "status": 1
  },
  {
    "id": 115,
    "airport": "Kenora Airport",
    "city": "Kenora",
    "country": "Canada",
    "code": "YQK",
    "late": 49.78829956,
    "long": -94.36309814,
    "region": "America/Winnipeg",
    "status": 1
  },
  {
    "id": 116,
    "airport": "Lethbridge County Airport",
    "city": "Lethbridge",
    "country": "Canada",
    "code": "YQL",
    "late": 49.63029861,
    "long": -112.8000031,
    "region": "America/Edmonton",
    "status": 1
  },
  {
    "id": 117,
    "airport": "Greater Moncton International Airport",
    "city": "Moncton",
    "country": "Canada",
    "code": "YQM",
    "late": 46.11220169,
    "long": -64.6785965,
    "region": "America/Halifax",
    "status": 1
  },
  {
    "id": 119,
    "airport": "Comox Airport",
    "city": "Comox",
    "country": "Canada",
    "code": "YQQ",
    "late": 49.71080017,
    "long": -124.887001,
    "region": "America/Vancouver",
    "status": 1
  },
  {
    "id": 120,
    "airport": "Regina International Airport",
    "city": "Regina",
    "country": "Canada",
    "code": "YQR",
    "late": 50.43190002,
    "long": -104.6660004,
    "region": "America/Regina",
    "status": 1
  },
  {
    "id": 121,
    "airport": "Thunder Bay Airport",
    "city": "Thunder Bay",
    "country": "Canada",
    "code": "YQT",
    "late": 48.37189865,
    "long": -89.32389832,
    "region": "America/Toronto",
    "status": 1
  },
  {
    "id": 122,
    "airport": "Grande Prairie Airport",
    "city": "Grande Prairie",
    "country": "Canada",
    "code": "YQU",
    "late": 55.17969894,
    "long": -118.8850021,
    "region": "America/Edmonton",
    "status": 1
  },
  {
    "id": 123,
    "airport": "Yorkton Municipal Airport",
    "city": "Yorkton",
    "country": "Canada",
    "code": "YQV",
    "late": 51.26470184,
    "long": -102.461998,
    "region": "America/Regina",
    "status": 1
  },
  {
    "id": 124,
    "airport": "North Battleford Airport",
    "city": "North Battleford",
    "country": "Canada",
    "code": "YQW",
    "late": 52.76919937,
    "long": -108.2440033,
    "region": "America/Regina",
    "status": 1
  },
  {
    "id": 125,
    "airport": "Gander International Airport",
    "city": "Gander",
    "country": "Canada",
    "code": "YQX",
    "late": 48.93690109,
    "long": -54.56809998,
    "region": "America/St_Johns",
    "status": 1
  },
  {
    "id": 126,
    "airport": "Sydney / J.A. Douglas McCurdy Airport",
    "city": "Sydney",
    "country": "Canada",
    "code": "YQY",
    "late": 46.1614,
    "long": -60.047798,
    "region": "America/Halifax",
    "status": 1
  },
  {
    "id": 127,
    "airport": "Quesnel Airport",
    "city": "Quesnel",
    "country": "Canada",
    "code": "YQZ",
    "late": 53.02610016,
    "long": -122.5100021,
    "region": "America/Vancouver",
    "status": 1
  },
  {
    "id": 128,
    "airport": "Resolute Bay Airport",
    "city": "Resolute",
    "country": "Canada",
    "code": "YRB",
    "late": 74.71690369,
    "long": -94.9693985,
    "region": "America/Winnipeg",
    "status": 1
  },
  {
    "id": 129,
    "airport": "Rivière-du-Loup Airport",
    "city": "Riviere Du Loup",
    "country": "Canada",
    "code": "YRI",
    "late": 47.76440048,
    "long": -69.58470154,
    "region": "America/Toronto",
    "status": 1
  },
  {
    "id": 130,
    "airport": "Roberval Airport",
    "city": "Roberval",
    "country": "Canada",
    "code": "YRJ",
    "late": 48.52000046,
    "long": -72.26560211,
    "region": "America/Toronto",
    "status": 1
  },
  {
    "id": 131,
    "airport": "Rocky Mountain House Airport",
    "city": "Rocky Mountain House",
    "country": "Canada",
    "code": "YRM",
    "late": 52.42969894,
    "long": -114.9039993,
    "region": "America/Edmonton",
    "status": 1
  },
  {
    "id": 132,
    "airport": "Rankin Inlet Airport",
    "city": "Rankin Inlet",
    "country": "Canada",
    "code": "YRT",
    "late": 62.81140137,
    "long": -92.11579895,
    "region": "America/Winnipeg",
    "status": 1
  },
  {
    "id": 133,
    "airport": "Sudbury Airport",
    "city": "Sudbury",
    "country": "Canada",
    "code": "YSB",
    "late": 46.625,
    "long": -80.79889679,
    "region": "America/Toronto",
    "status": 1
  },
  {
    "id": 134,
    "airport": "Sherbrooke Airport",
    "city": "Sherbrooke",
    "country": "Canada",
    "code": "YSC",
    "late": 45.43859863,
    "long": -71.69139862,
    "region": "America/Toronto",
    "status": 1
  },
  {
    "id": 135,
    "airport": "Saint John Airport",
    "city": "St. John",
    "country": "Canada",
    "code": "YSJ",
    "late": 45.31610107,
    "long": -65.89029694,
    "region": "America/Halifax",
    "status": 1
  },
  {
    "id": 136,
    "airport": "Fort Smith Airport",
    "city": "Fort Smith",
    "country": "Canada",
    "code": "YSM",
    "late": 60.02030182,
    "long": -111.961998,
    "region": "America/Edmonton",
    "status": 1
  },
  {
    "id": 137,
    "airport": "Nanisivik Airport",
    "city": "Nanisivik",
    "country": "Canada",
    "code": "YSR",
    "late": 72.982201,
    "long": -84.613602,
    "region": "America/Toronto",
    "status": 1
  },
  {
    "id": 138,
    "airport": "Summerside Airport",
    "city": "Summerside",
    "country": "Canada",
    "code": "YSU",
    "late": 46.44060135,
    "long": -63.83359909,
    "region": "America/Halifax",
    "status": 1
  },
  {
    "id": 139,
    "airport": "Sachs Harbour (David Nasogaluak Jr. Saaryuaq) Airport",
    "city": "Sachs Harbour",
    "country": "Canada",
    "code": "YSY",
    "late": 71.99389648,
    "long": -125.2429962,
    "region": "America/Edmonton",
    "status": 1
  },
  {
    "id": 140,
    "airport": "Cape Dorset Airport",
    "city": "Cape Dorset",
    "country": "Canada",
    "code": "YTE",
    "late": 64.23000336,
    "long": -76.52670288,
    "region": "America/Toronto",
    "status": 1
  },
  {
    "id": 141,
    "airport": "Thompson Airport",
    "city": "Thompson",
    "country": "Canada",
    "code": "YTH",
    "late": 55.80110168,
    "long": -97.86419678,
    "region": "America/Winnipeg",
    "status": 1
  },
  {
    "id": 142,
    "airport": "CFB Trenton",
    "city": "Trenton",
    "country": "Canada",
    "code": "YTR",
    "late": 44.1189003,
    "long": -77.52809906,
    "region": "America/Toronto",
    "status": 1
  },
  {
    "id": 143,
    "airport": "Timmins/Victor M. Power",
    "city": "Timmins",
    "country": "Canada",
    "code": "YTS",
    "late": 48.56969833,
    "long": -81.37670136,
    "region": "America/Toronto",
    "status": 1
  },
  {
    "id": 144,
    "airport": "Billy Bishop Toronto City Centre Airport",
    "city": "Toronto",
    "country": "Canada",
    "code": "YTZ",
    "late": 43.627499,
    "long": -79.396202,
    "region": "America/Toronto",
    "status": 1
  },
  {
    "id": 145,
    "airport": "Tuktoyaktuk Airport",
    "city": "Tuktoyaktuk",
    "country": "Canada",
    "code": "YUB",
    "late": 69.4332962,
    "long": -133.026001,
    "region": "America/Edmonton",
    "status": 1
  },
  {
    "id": 146,
    "airport": "Montreal / Pierre Elliott Trudeau International Airport",
    "city": "Montreal",
    "country": "Canada",
    "code": "YUL",
    "late": 45.47060013,
    "long": -73.74079895,
    "region": "America/Toronto",
    "status": 1
  },
  {
    "id": 147,
    "airport": "Repulse Bay Airport",
    "city": "Repulse Bay",
    "country": "Canada",
    "code": "YUT",
    "late": 66.52140045,
    "long": -86.22470093,
    "region": "America/Winnipeg",
    "status": 1
  },
  {
    "id": 148,
    "airport": "Hall Beach Airport",
    "city": "Hall Beach",
    "country": "Canada",
    "code": "YUX",
    "late": 68.77610016,
    "long": -81.2425,
    "region": "America/Toronto",
    "status": 1
  },
  {
    "id": 149,
    "airport": "Rouyn Noranda Airport",
    "city": "Rouyn",
    "country": "Canada",
    "code": "YUY",
    "late": 48.20610046,
    "long": -78.83560181,
    "region": "America/Toronto",
    "status": 1
  },
  {
    "id": 150,
    "airport": "La Ronge Airport",
    "city": "La Ronge",
    "country": "Canada",
    "code": "YVC",
    "late": 55.15140152,
    "long": -105.262001,
    "region": "America/Regina",
    "status": 1
  },
  {
    "id": 151,
    "airport": "Vermilion Airport",
    "city": "Vermillion",
    "country": "Canada",
    "code": "YVG",
    "late": 53.35580063,
    "long": -110.8239975,
    "region": "America/Edmonton",
    "status": 1
  },
  {
    "id": 152,
    "airport": "Qikiqtarjuaq Airport",
    "city": "Broughton Island",
    "country": "Canada",
    "code": "YVM",
    "late": 67.54579926,
    "long": -64.03140259,
    "region": "America/Toronto",
    "status": 1
  },
  {
    "id": 153,
    "airport": "Val-d'Or Airport",
    "city": "Val D'or",
    "country": "Canada",
    "code": "YVO",
    "late": 48.05329895,
    "long": -77.78279877,
    "region": "America/Toronto",
    "status": 1
  },
  {
    "id": 154,
    "airport": "Kuujjuaq Airport",
    "city": "Quujjuaq",
    "country": "Canada",
    "code": "YVP",
    "late": 58.09609985,
    "long": -68.42690277,
    "region": "America/Toronto",
    "status": 1
  },
  {
    "id": 155,
    "airport": "Norman Wells Airport",
    "city": "Norman Wells",
    "country": "Canada",
    "code": "YVQ",
    "late": 65.28160095,
    "long": -126.7979965,
    "region": "America/Edmonton",
    "status": 1
  },
  {
    "id": 156,
    "airport": "Vancouver International Airport",
    "city": "Vancouver",
    "country": "Canada",
    "code": "YVR",
    "late": 49.19390106,
    "long": -123.1839981,
    "region": "America/Vancouver",
    "status": 1
  },
  {
    "id": 157,
    "airport": "Buffalo Narrows Airport",
    "city": "Buffalo Narrows",
    "country": "Canada",
    "code": "YVT",
    "late": 55.84189987,
    "long": -108.4179993,
    "region": "America/Regina",
    "status": 1
  },
  {
    "id": 158,
    "airport": "Wiarton Airport",
    "city": "Wiarton",
    "country": "Canada",
    "code": "YVV",
    "late": 44.7458,
    "long": -81.107201,
    "region": "America/Toronto",
    "status": 1
  },
  {
    "id": 159,
    "airport": "Petawawa Airport",
    "city": "Petawawa",
    "country": "Canada",
    "code": "YWA",
    "late": 45.95220184,
    "long": -77.31919861,
    "region": "America/Toronto",
    "status": 1
  },
  {
    "id": 160,
    "airport": "Winnipeg / James Armstrong Richardson International Airport",
    "city": "Winnipeg",
    "country": "Canada",
    "code": "YWG",
    "late": 49.90999985,
    "long": -97.23989868,
    "region": "America/Winnipeg",
    "status": 1
  },
  {
    "id": 161,
    "airport": "Wabush Airport",
    "city": "Wabush",
    "country": "Canada",
    "code": "YWK",
    "late": 52.9219017,
    "long": -66.86440277,
    "region": "America/Halifax",
    "status": 1
  },
  {
    "id": 162,
    "airport": "Williams Lake Airport",
    "city": "Williams Lake",
    "country": "Canada",
    "code": "YWL",
    "late": 52.18310165,
    "long": -122.0540009,
    "region": "America/Vancouver",
    "status": 1
  },
  {
    "id": 163,
    "airport": "Wrigley Airport",
    "city": "Wrigley",
    "country": "Canada",
    "code": "YWY",
    "late": 63.20940018,
    "long": -123.4369965,
    "region": "America/Edmonton",
    "status": 1
  },
  {
    "id": 164,
    "airport": "Cranbrook/Canadian Rockies International Airport",
    "city": "Cranbrook",
    "country": "Canada",
    "code": "YXC",
    "late": 49.6108017,
    "long": -115.7819977,
    "region": "America/Edmonton",
    "status": 1
  },
  {
    "id": 165,
    "airport": "Edmonton City Centre (Blatchford Field) Airport",
    "city": "Edmonton",
    "country": "Canada",
    "code": "YXD",
    "late": 53.57249832,
    "long": -113.5210037,
    "region": "America/Edmonton",
    "status": 1
  },
  {
    "id": 166,
    "airport": "Saskatoon John G. Diefenbaker International Airport",
    "city": "Saskatoon",
    "country": "Canada",
    "code": "YXE",
    "late": 52.17079926,
    "long": -106.6999969,
    "region": "America/Regina",
    "status": 1
  },
  {
    "id": 167,
    "airport": "Medicine Hat Airport",
    "city": "Medicine Hat",
    "country": "Canada",
    "code": "YXH",
    "late": 50.01890182,
    "long": -110.7210007,
    "region": "America/Edmonton",
    "status": 1
  },
  {
    "id": 168,
    "airport": "Fort St John Airport",
    "city": "Fort Saint John",
    "country": "Canada",
    "code": "YXJ",
    "late": 56.23809814,
    "long": -120.7399979,
    "region": "America/Dawson_Creek",
    "status": 1
  },
  {
    "id": 169,
    "airport": "Sioux Lookout Airport",
    "city": "Sioux Lookout",
    "country": "Canada",
    "code": "YXL",
    "late": 50.11389923,
    "long": -91.90529633,
    "region": "America/Winnipeg",
    "status": 1
  },
  {
    "id": 170,
    "airport": "Pangnirtung Airport",
    "city": "Pangnirtung",
    "country": "Canada",
    "code": "YXP",
    "late": 66.14499664,
    "long": -65.71360016,
    "region": "America/Toronto",
    "status": 1
  },
  {
    "id": 171,
    "airport": "Earlton (Timiskaming Regional) Airport",
    "city": "Earlton",
    "country": "Canada",
    "code": "YXR",
    "late": 47.69740065,
    "long": -79.84734535,
    "region": "America/Toronto",
    "status": 1
  },
  {
    "id": 172,
    "airport": "Prince George Airport",
    "city": "Prince George",
    "country": "Canada",
    "code": "YXS",
    "late": 53.88940048,
    "long": -122.6790009,
    "region": "America/Vancouver",
    "status": 1
  },
  {
    "id": 173,
    "airport": "Northwest Regional Airport Terrace-Kitimat",
    "city": "Terrace",
    "country": "Canada",
    "code": "YXT",
    "late": 54.468498,
    "long": -128.576009,
    "region": "America/Vancouver",
    "status": 1
  },
  {
    "id": 174,
    "airport": "London Airport",
    "city": "London",
    "country": "Canada",
    "code": "YXU",
    "late": 43.035599,
    "long": -81.1539,
    "region": "America/Toronto",
    "status": 1
  },
  {
    "id": 175,
    "airport": "Abbotsford Airport",
    "city": "Abbotsford",
    "country": "Canada",
    "code": "YXX",
    "late": 49.02529907,
    "long": -122.3610001,
    "region": "America/Vancouver",
    "status": 1
  },
  {
    "id": 176,
    "airport": "Whitehorse / Erik Nielsen International Airport",
    "city": "Whitehorse",
    "country": "Canada",
    "code": "YXY",
    "late": 60.70959854,
    "long": -135.0670013,
    "region": "America/Vancouver",
    "status": 1
  },
  {
    "id": 177,
    "airport": "North Bay Jack Garland Airport",
    "city": "North Bay",
    "country": "Canada",
    "code": "YYB",
    "late": 46.363602,
    "long": -79.422798,
    "region": "America/Toronto",
    "status": 1
  },
  {
    "id": 178,
    "airport": "Calgary International Airport",
    "city": "Calgary",
    "country": "Canada",
    "code": "YYC",
    "late": 51.11389923,
    "long": -114.0199966,
    "region": "America/Edmonton",
    "status": 1
  },
  {
    "id": 179,
    "airport": "Smithers Airport",
    "city": "Smithers",
    "country": "Canada",
    "code": "YYD",
    "late": 54.8246994,
    "long": -127.1829987,
    "region": "America/Vancouver",
    "status": 1
  },
  {
    "id": 180,
    "airport": "Fort Nelson Airport",
    "city": "Fort Nelson",
    "country": "Canada",
    "code": "YYE",
    "late": 58.83639908,
    "long": -122.5970001,
    "region": "America/Vancouver",
    "status": 1
  },
  {
    "id": 181,
    "airport": "Penticton Airport",
    "city": "Penticton",
    "country": "Canada",
    "code": "YYF",
    "late": 49.46310043,
    "long": -119.6019974,
    "region": "America/Vancouver",
    "status": 1
  },
  {
    "id": 182,
    "airport": "Charlottetown Airport",
    "city": "Charlottetown",
    "country": "Canada",
    "code": "YYG",
    "late": 46.29000092,
    "long": -63.12110138,
    "region": "America/Halifax",
    "status": 1
  },
  {
    "id": 183,
    "airport": "Taloyoak Airport",
    "city": "Spence Bay",
    "country": "Canada",
    "code": "YYH",
    "late": 69.54669952,
    "long": -93.5766983,
    "region": "America/Edmonton",
    "status": 1
  },
  {
    "id": 184,
    "airport": "Victoria International Airport",
    "city": "Victoria",
    "country": "Canada",
    "code": "YYJ",
    "late": 48.64690018,
    "long": -123.4260025,
    "region": "America/Vancouver",
    "status": 1
  },
  {
    "id": 185,
    "airport": "Lynn Lake Airport",
    "city": "Lynn Lake",
    "country": "Canada",
    "code": "YYL",
    "late": 56.86389923,
    "long": -101.0759964,
    "region": "America/Winnipeg",
    "status": 1
  },
  {
    "id": 186,
    "airport": "Swift Current Airport",
    "city": "Swift Current",
    "country": "Canada",
    "code": "YYN",
    "late": 50.29190063,
    "long": -107.6910019,
    "region": "America/Regina",
    "status": 1
  },
  {
    "id": 187,
    "airport": "Churchill Airport",
    "city": "Churchill",
    "country": "Canada",
    "code": "YYQ",
    "late": 58.73920059,
    "long": -94.06500244,
    "region": "America/Winnipeg",
    "status": 1
  },
  {
    "id": 188,
    "airport": "Goose Bay Airport",
    "city": "Goose Bay",
    "country": "Canada",
    "code": "YYR",
    "late": 53.31919861,
    "long": -60.42580032,
    "region": "America/Halifax",
    "status": 1
  },
  {
    "id": 189,
    "airport": "St. John's International Airport",
    "city": "St. John's",
    "country": "Canada",
    "code": "YYT",
    "late": 47.61859894,
    "long": -52.75189972,
    "region": "America/St_Johns",
    "status": 1
  },
  {
    "id": 190,
    "airport": "Kapuskasing Airport",
    "city": "Kapuskasing",
    "country": "Canada",
    "code": "YYU",
    "late": 49.41389847,
    "long": -82.46749878,
    "region": "America/Toronto",
    "status": 1
  },
  {
    "id": 191,
    "airport": "Armstrong Airport",
    "city": "Armstrong",
    "country": "Canada",
    "code": "YYW",
    "late": 50.29029846,
    "long": -88.90969849,
    "region": "America/Toronto",
    "status": 1
  },
  {
    "id": 192,
    "airport": "Mont Joli Airport",
    "city": "Mont Joli",
    "country": "Canada",
    "code": "YYY",
    "late": 48.60860062,
    "long": -68.20809937,
    "region": "America/Toronto",
    "status": 1
  },
  {
    "id": 193,
    "airport": "Lester B. Pearson International Airport",
    "city": "Toronto",
    "country": "Canada",
    "code": "YYZ",
    "late": 43.67720032,
    "long": -79.63059998,
    "region": "America/Toronto",
    "status": 1
  },
  {
    "id": 194,
    "airport": "Downsview Airport",
    "city": "Toronto",
    "country": "Canada",
    "code": "YZD",
    "late": 43.74250031,
    "long": -79.46559906,
    "region": "America/Toronto",
    "status": 1
  },
  {
    "id": 195,
    "airport": "Gore Bay Manitoulin Airport",
    "city": "Gore Bay",
    "country": "Canada",
    "code": "YZE",
    "late": 45.88529968,
    "long": -82.56780243,
    "region": "America/Toronto",
    "status": 1
  },
  {
    "id": 196,
    "airport": "Yellowknife Airport",
    "city": "Yellowknife",
    "country": "Canada",
    "code": "YZF",
    "late": 62.46279907,
    "long": -114.4400024,
    "region": "America/Edmonton",
    "status": 1
  },
  {
    "id": 197,
    "airport": "Slave Lake Airport",
    "city": "Slave Lake",
    "country": "Canada",
    "code": "YZH",
    "late": 55.29309845,
    "long": -114.7770004,
    "region": "America/Edmonton",
    "status": 1
  },
  {
    "id": 198,
    "airport": "Sandspit Airport",
    "city": "Sandspit",
    "country": "Canada",
    "code": "YZP",
    "late": 53.25429916,
    "long": -131.8139954,
    "region": "America/Vancouver",
    "status": 1
  },
  {
    "id": 199,
    "airport": "Chris Hadfield Airport",
    "city": "Sarnia",
    "country": "Canada",
    "code": "YZR",
    "late": 42.99940109,
    "long": -82.30889893,
    "region": "America/Toronto",
    "status": 1
  },
  {
    "id": 200,
    "airport": "Port Hardy Airport",
    "city": "Port Hardy",
    "country": "Canada",
    "code": "YZT",
    "late": 50.68059921,
    "long": -127.3669968,
    "region": "America/Vancouver",
    "status": 1
  },
  {
    "id": 201,
    "airport": "Whitecourt Airport",
    "city": "Whitecourt",
    "country": "Canada",
    "code": "YZU",
    "late": 54.14390182,
    "long": -115.7870026,
    "region": "America/Edmonton",
    "status": 1
  },
  {
    "id": 202,
    "airport": "Sept-Îles Airport",
    "city": "Sept-iles",
    "country": "Canada",
    "code": "YZV",
    "late": 50.22330093,
    "long": -66.26560211,
    "region": "America/Toronto",
    "status": 1
  },
  {
    "id": 203,
    "airport": "Teslin Airport",
    "city": "Teslin",
    "country": "Canada",
    "code": "YZW",
    "late": 60.17279816,
    "long": -132.7429962,
    "region": "America/Vancouver",
    "status": 1
  },
  {
    "id": 204,
    "airport": "CFB Greenwood",
    "city": "Greenwood",
    "country": "Canada",
    "code": "YZX",
    "late": 44.9844017,
    "long": -64.91690063,
    "region": "America/Halifax",
    "status": 1
  },
  {
    "id": 205,
    "airport": "Faro Airport",
    "city": "Faro",
    "country": "Canada",
    "code": "ZFA",
    "late": 62.20750046,
    "long": -133.3760071,
    "region": "America/Vancouver",
    "status": 1
  },
  {
    "id": 206,
    "airport": "Fort Mcpherson Airport",
    "city": "Fort Mcpherson",
    "country": "Canada",
    "code": "ZFM",
    "late": 67.40750122,
    "long": -134.8609924,
    "region": "America/Edmonton",
    "status": 1
  },
  {
    "id": 207,
    "airport": "Blida Airport",
    "city": "Blida",
    "country": "Algeria",
    "code": "QLD",
    "late": 36.50360107,
    "long": 2.814169884,
    "region": "Africa/Algiers",
    "status": 1
  },
  {
    "id": 208,
    "airport": "Bou Saada Airport",
    "city": "Bou Saada",
    "country": "Algeria",
    "code": "BUJ",
    "late": 35.33250046,
    "long": 4.206389904,
    "region": "Africa/Algiers",
    "status": 1
  },
  {
    "id": 209,
    "airport": "Soummam Airport",
    "city": "Bejaja",
    "country": "Algeria",
    "code": "BJA",
    "late": 36.7120018,
    "long": 5.069920063,
    "region": "Africa/Algiers",
    "status": 1
  },
  {
    "id": 210,
    "airport": "Houari Boumediene Airport",
    "city": "Algier",
    "country": "Algeria",
    "code": "ALG",
    "late": 36.69100189,
    "long": 3.215409994,
    "region": "Africa/Algiers",
    "status": 1
  },
  {
    "id": 211,
    "airport": "Djanet Inedbirene Airport",
    "city": "Djanet",
    "country": "Algeria",
    "code": "DJG",
    "late": 24.292801,
    "long": 9.45244,
    "region": "Africa/Algiers",
    "status": 1
  },
  {
    "id": 214,
    "airport": "Illizi Takhamalt Airport",
    "city": "Illizi",
    "country": "Algeria",
    "code": "VVZ",
    "late": 26.7234993,
    "long": 8.622650146,
    "region": "Africa/Algiers",
    "status": 1
  },
  {
    "id": 216,
    "airport": "Aguenar – Hadj Bey Akhamok Airport",
    "city": "Tamanrasset",
    "country": "Algeria",
    "code": "TMR",
    "late": 22.81150055,
    "long": 5.451079845,
    "region": "Africa/Algiers",
    "status": 1
  },
  {
    "id": 217,
    "airport": "Jijel Ferhat Abbas Airport",
    "city": "Jijel",
    "country": "Algeria",
    "code": "GJL",
    "late": 36.79510117,
    "long": 5.87361002,
    "region": "Africa/Algiers",
    "status": 1
  },
  {
    "id": 218,
    "airport": "Mecheria Airport",
    "city": "Mecheria",
    "country": "Algeria",
    "code": "MZW",
    "late": 33.53590012,
    "long": -0.2423530072,
    "region": "Africa/Algiers",
    "status": 1
  },
  {
    "id": 220,
    "airport": "Rabah Bitat Airport",
    "city": "Annaba",
    "country": "Algeria",
    "code": "AAE",
    "late": 36.822201,
    "long": 7.809174,
    "region": "Africa/Algiers",
    "status": 1
  },
  {
    "id": 221,
    "airport": "Mohamed Boudiaf International Airport",
    "city": "Constantine",
    "country": "Algeria",
    "code": "CZL",
    "late": 36.27600098,
    "long": 6.620389938,
    "region": "Africa/Algiers",
    "status": 1
  },
  {
    "id": 222,
    "airport": "Cheikh Larbi Tébessi Airport",
    "city": "Tebessa",
    "country": "Algeria",
    "code": "TEE",
    "late": 35.43159866,
    "long": 8.12071991,
    "region": "Africa/Algiers",
    "status": 1
  },
  {
    "id": 224,
    "airport": "Hassi R'Mel Airport",
    "city": "Tilrempt",
    "country": "Algeria",
    "code": "HRM",
    "late": 32.93040085,
    "long": 3.311539888,
    "region": "Africa/Algiers",
    "status": 1
  },
  {
    "id": 225,
    "airport": "Bou Chekif Airport",
    "city": "Tiaret",
    "country": "Algeria",
    "code": "TID",
    "late": 35.34109879,
    "long": 1.463150024,
    "region": "Africa/Algiers",
    "status": 1
  },
  {
    "id": 227,
    "airport": "Tindouf Airport",
    "city": "Tindouf",
    "country": "Algeria",
    "code": "TIN",
    "late": 27.7003994,
    "long": -8.167099953,
    "region": "Africa/Algiers",
    "status": 1
  },
  {
    "id": 228,
    "airport": "Ech Cheliff Airport",
    "city": "Ech-cheliff",
    "country": "Algeria",
    "code": "CFK",
    "late": 36.21269989,
    "long": 1.331769943,
    "region": "Africa/Algiers",
    "status": 1
  },
  {
    "id": 229,
    "airport": "Tafaraoui Airport",
    "city": "Oran",
    "country": "Algeria",
    "code": "TAF",
    "late": 35.54240036,
    "long": -0.5322780013,
    "region": "Africa/Algiers",
    "status": 1
  },
  {
    "id": 230,
    "airport": "Zenata – Messali El Hadj Airport",
    "city": "Tlemcen",
    "country": "Algeria",
    "code": "TLM",
    "late": 35.01670074,
    "long": -1.450000048,
    "region": "Africa/Algiers",
    "status": 1
  },
  {
    "id": 231,
    "airport": "Es Senia Airport",
    "city": "Oran",
    "country": "Algeria",
    "code": "ORN",
    "late": 35.62390137,
    "long": -0.6211829782,
    "region": "Africa/Algiers",
    "status": 1
  },
  {
    "id": 232,
    "airport": "Sidi Bel Abbes Airport",
    "city": "Sidi Bel Abbes",
    "country": "Algeria",
    "code": "BFW",
    "late": 35.17179871,
    "long": -0.5932750106,
    "region": "Africa/Algiers",
    "status": 1
  },
  {
    "id": 233,
    "airport": "Ghriss Airport",
    "city": "Ghriss",
    "country": "Algeria",
    "code": "MUW",
    "late": 35.20769882,
    "long": 0.147141993,
    "region": "Africa/Algiers",
    "status": 1
  },
  {
    "id": 234,
    "airport": "Touat Cheikh Sidi Mohamed Belkebir Airport",
    "city": "Adrar",
    "country": "Algeria",
    "code": "AZR",
    "late": 27.83760071,
    "long": -0.1864140034,
    "region": "Africa/Algiers",
    "status": 1
  },
  {
    "id": 235,
    "airport": "Biskra Airport",
    "city": "Biskra",
    "country": "Algeria",
    "code": "BSK",
    "late": 34.79330063,
    "long": 5.738230228,
    "region": "Africa/Algiers",
    "status": 1
  },
  {
    "id": 236,
    "airport": "El Golea Airport",
    "city": "El Golea",
    "country": "Algeria",
    "code": "ELG",
    "late": 30.57130051,
    "long": 2.859590054,
    "region": "Africa/Algiers",
    "status": 1
  },
  {
    "id": 237,
    "airport": "Noumérat - Moufdi Zakaria Airport",
    "city": "Ghardaia",
    "country": "Algeria",
    "code": "GHA",
    "late": 32.38410187,
    "long": 3.79411006,
    "region": "Africa/Algiers",
    "status": 1
  },
  {
    "id": 238,
    "airport": "Oued Irara Airport",
    "city": "Hassi Messaoud",
    "country": "Algeria",
    "code": "HME",
    "late": 31.67300034,
    "long": 6.140439987,
    "region": "Africa/Algiers",
    "status": 1
  },
  {
    "id": 239,
    "airport": "In Salah Airport",
    "city": "In Salah",
    "country": "Algeria",
    "code": "INZ",
    "late": 27.25099945,
    "long": 2.512020111,
    "region": "Africa/Algiers",
    "status": 1
  },
  {
    "id": 240,
    "airport": "Touggourt Sidi Madhi Airport",
    "city": "Touggourt",
    "country": "Algeria",
    "code": "TGR",
    "late": 33.06779861,
    "long": 6.088669777,
    "region": "Africa/Algiers",
    "status": 1
  },
  {
    "id": 241,
    "airport": "Laghouat Airport",
    "city": "Laghouat",
    "country": "Algeria",
    "code": "LOO",
    "late": 33.76440048,
    "long": 2.928339958,
    "region": "Africa/Algiers",
    "status": 1
  },
  {
    "id": 242,
    "airport": "Timimoun Airport",
    "city": "Timimoun",
    "country": "Algeria",
    "code": "TMX",
    "late": 29.2371006,
    "long": 0.2760330141,
    "region": "Africa/Algiers",
    "status": 1
  },
  {
    "id": 243,
    "airport": "Ain el Beida Airport",
    "city": "Ouargla",
    "country": "Algeria",
    "code": "OGX",
    "late": 31.91720009,
    "long": 5.412779808,
    "region": "Africa/Algiers",
    "status": 1
  },
  {
    "id": 244,
    "airport": "In Aménas Airport",
    "city": "Zarzaitine",
    "country": "Algeria",
    "code": "IAM",
    "late": 28.0515,
    "long": 9.64291,
    "region": "Africa/Algiers",
    "status": 1
  },
  {
    "id": 245,
    "airport": "Cadjehoun Airport",
    "city": "Cotonou",
    "country": "Benin",
    "code": "COO",
    "late": 6.357230186,
    "long": 2.384350061,
    "region": "Africa/Porto-Novo",
    "status": 1
  },
  {
    "id": 246,
    "airport": "Ouagadougou Airport",
    "city": "Ouagadougou",
    "country": "Burkina Faso",
    "code": "OUA",
    "late": 12.3532,
    "long": -1.51242,
    "region": "Africa/Ouagadougou",
    "status": 1
  },
  {
    "id": 247,
    "airport": "Bobo Dioulasso Airport",
    "city": "Bobo-dioulasso",
    "country": "Burkina Faso",
    "code": "BOY",
    "late": 11.16009998,
    "long": -4.33096981,
    "region": "Africa/Ouagadougou",
    "status": 1
  },
  {
    "id": 248,
    "airport": "Kotoka International Airport",
    "city": "Accra",
    "country": "Ghana",
    "code": "ACC",
    "late": 5.6051898,
    "long": -0.1667860001,
    "region": "Africa/Accra",
    "status": 1
  },
  {
    "id": 249,
    "airport": "Tamale Airport",
    "city": "Tamale",
    "country": "Ghana",
    "code": "TML",
    "late": 9.557189941,
    "long": -0.863214016,
    "region": "Africa/Accra",
    "status": 1
  },
  {
    "id": 251,
    "airport": "Sunyani Airport",
    "city": "Sunyani",
    "country": "Ghana",
    "code": "NYI",
    "late": 7.361830235,
    "long": -2.328759909,
    "region": "Africa/Accra",
    "status": 1
  },
  {
    "id": 252,
    "airport": "Takoradi Airport",
    "city": "Takoradi",
    "country": "Ghana",
    "code": "TKD",
    "late": 4.89605999,
    "long": -1.774760008,
    "region": "Africa/Accra",
    "status": 1
  },
  {
    "id": 253,
    "airport": "Port Bouet Airport",
    "city": "Abidjan",
    "country": "Cote d'Ivoire",
    "code": "ABJ",
    "late": 5.261390209,
    "long": -3.926290035,
    "region": "Africa/Abidjan",
    "status": 1
  },
  {
    "id": 254,
    "airport": "Bouaké Airport",
    "city": "Bouake",
    "country": "Cote d'Ivoire",
    "code": "BYK",
    "late": 7.738800049,
    "long": -5.07366991,
    "region": "Africa/Abidjan",
    "status": 1
  },
  {
    "id": 255,
    "airport": "Daloa Airport",
    "city": "Daloa",
    "country": "Cote d'Ivoire",
    "code": "DJO",
    "late": 6.792809963,
    "long": -6.473189831,
    "region": "Africa/Abidjan",
    "status": 1
  },
  {
    "id": 256,
    "airport": "Korhogo Airport",
    "city": "Korhogo",
    "country": "Cote d'Ivoire",
    "code": "HGO",
    "late": 9.387180328,
    "long": -5.556660175,
    "region": "Africa/Abidjan",
    "status": 1
  },
  {
    "id": 257,
    "airport": "Man Airport",
    "city": "Man",
    "country": "Cote d'Ivoire",
    "code": "MJC",
    "late": 7.272069931,
    "long": -7.587359905,
    "region": "Africa/Abidjan",
    "status": 1
  },
  {
    "id": 258,
    "airport": "San Pedro Airport",
    "city": "San Pedro",
    "country": "Cote d'Ivoire",
    "code": "SPY",
    "late": 4.746719837,
    "long": -6.660820007,
    "region": "Africa/Abidjan",
    "status": 1
  },
  {
    "id": 259,
    "airport": "Yamoussoukro Airport",
    "city": "Yamoussoukro",
    "country": "Cote d'Ivoire",
    "code": "ASK",
    "late": 6.903170109,
    "long": -5.365580082,
    "region": "Africa/Abidjan",
    "status": 1
  },
  {
    "id": 260,
    "airport": "Nnamdi Azikiwe International Airport",
    "city": "Abuja",
    "country": "Nigeria",
    "code": "ABV",
    "late": 9.006790161,
    "long": 7.263169765,
    "region": "Africa/Lagos",
    "status": 1
  },
  {
    "id": 261,
    "airport": "Akure Airport",
    "city": "Akure",
    "country": "Nigeria",
    "code": "AKR",
    "late": 7.246739864,
    "long": 5.301010132,
    "region": "Africa/Lagos",
    "status": 1
  },
  {
    "id": 262,
    "airport": "Benin Airport",
    "city": "Benin",
    "country": "Nigeria",
    "code": "BNI",
    "late": 6.316979885,
    "long": 5.599500179,
    "region": "Africa/Lagos",
    "status": 1
  },
  {
    "id": 263,
    "airport": "Margaret Ekpo International Airport",
    "city": "Calabar",
    "country": "Nigeria",
    "code": "CBQ",
    "late": 4.976019859,
    "long": 8.347200394,
    "region": "Africa/Lagos",
    "status": 1
  },
  {
    "id": 264,
    "airport": "Akanu Ibiam International Airport",
    "city": "Enugu",
    "country": "Nigeria",
    "code": "ENU",
    "late": 6.474269867,
    "long": 7.56196022,
    "region": "Africa/Lagos",
    "status": 1
  },
  {
    "id": 266,
    "airport": "Ibadan Airport",
    "city": "Ibadan",
    "country": "Nigeria",
    "code": "IBA",
    "late": 7.362460136,
    "long": 3.978329897,
    "region": "Africa/Lagos",
    "status": 1
  },
  {
    "id": 267,
    "airport": "Ilorin International Airport",
    "city": "Ilorin",
    "country": "Nigeria",
    "code": "ILR",
    "late": 8.440210342,
    "long": 4.493919849,
    "region": "Africa/Lagos",
    "status": 1
  },
  {
    "id": 268,
    "airport": "Yakubu Gowon Airport",
    "city": "Jos",
    "country": "Nigeria",
    "code": "JOS",
    "late": 9.639829636,
    "long": 8.869050026,
    "region": "Africa/Lagos",
    "status": 1
  },
  {
    "id": 269,
    "airport": "Kaduna Airport",
    "city": "Kaduna",
    "country": "Nigeria",
    "code": "KAD",
    "late": 10.6960001,
    "long": 7.320109844,
    "region": "Africa/Lagos",
    "status": 1
  },
  {
    "id": 270,
    "airport": "Mallam Aminu International Airport",
    "city": "Kano",
    "country": "Nigeria",
    "code": "KAN",
    "late": 12.0476,
    "long": 8.52462,
    "region": "Africa/Lagos",
    "status": 1
  },
  {
    "id": 271,
    "airport": "Maiduguri International Airport",
    "city": "Maiduguri",
    "country": "Nigeria",
    "code": "MIU",
    "late": 11.85529995,
    "long": 13.08090019,
    "region": "Africa/Lagos",
    "status": 1
  },
  {
    "id": 272,
    "airport": "Makurdi Airport",
    "city": "Makurdi",
    "country": "Nigeria",
    "code": "MDI",
    "late": 7.70388,
    "long": 8.61394,
    "region": "Africa/Lagos",
    "status": 1
  },
  {
    "id": 273,
    "airport": "Murtala Muhammed International Airport",
    "city": "Lagos",
    "country": "Nigeria",
    "code": "LOS",
    "late": 6.577370167,
    "long": 3.321160078,
    "region": "Africa/Lagos",
    "status": 1
  },
  {
    "id": 274,
    "airport": "Minna Airport",
    "city": "Minna",
    "country": "Nigeria",
    "code": "MXJ",
    "late": 9.652170181,
    "long": 6.462259769,
    "region": "Africa/Lagos",
    "status": 1
  },
  {
    "id": 275,
    "airport": "Port Harcourt International Airport",
    "city": "Port Hartcourt",
    "country": "Nigeria",
    "code": "PHC",
    "late": 5.015490055,
    "long": 6.949590206,
    "region": "Africa/Lagos",
    "status": 1
  },
  {
    "id": 276,
    "airport": "Sadiq Abubakar III International Airport",
    "city": "Sokoto",
    "country": "Nigeria",
    "code": "SKO",
    "late": 12.91629982,
    "long": 5.207190037,
    "region": "Africa/Lagos",
    "status": 1
  },
  {
    "id": 277,
    "airport": "Yola Airport",
    "city": "Yola",
    "country": "Nigeria",
    "code": "YOL",
    "late": 9.25755024,
    "long": 12.43039989,
    "region": "Africa/Lagos",
    "status": 1
  },
  {
    "id": 278,
    "airport": "Zaria Airport",
    "city": "Zaria",
    "country": "Nigeria",
    "code": "ZAR",
    "late": 11.1302,
    "long": 7.68581,
    "region": "Africa/Lagos",
    "status": 1
  },
  {
    "id": 279,
    "airport": "Maradi Airport",
    "city": "Maradi",
    "country": "Niger",
    "code": "MFQ",
    "late": 13.50249958,
    "long": 7.126749992,
    "region": "Africa/Niamey",
    "status": 1
  },
  {
    "id": 280,
    "airport": "Diori Hamani International Airport",
    "city": "Niamey",
    "country": "Niger",
    "code": "NIM",
    "late": 13.4815,
    "long": 2.18361,
    "region": "Africa/Niamey",
    "status": 1
  },
  {
    "id": 281,
    "airport": "Tahoua Airport",
    "city": "Tahoua",
    "country": "Niger",
    "code": "THZ",
    "late": 14.8757,
    "long": 5.265359879,
    "region": "Africa/Niamey",
    "status": 1
  },
  {
    "id": 282,
    "airport": "Mano Dayak International Airport",
    "city": "Agadez",
    "country": "Niger",
    "code": "AJY",
    "late": 16.9659996,
    "long": 8.000109673,
    "region": "Africa/Niamey",
    "status": 1
  },
  {
    "id": 285,
    "airport": "Zinder Airport",
    "city": "Zinder",
    "country": "Niger",
    "code": "ZND",
    "late": 13.77900028,
    "long": 8.98375988,
    "region": "Africa/Niamey",
    "status": 1
  },
  {
    "id": 286,
    "airport": "Monastir Habib Bourguiba International Airport",
    "city": "Monastir",
    "country": "Tunisia",
    "code": "MIR",
    "late": 35.7580986,
    "long": 10.75469971,
    "region": "Africa/Tunis",
    "status": 1
  },
  {
    "id": 287,
    "airport": "Tunis Carthage International Airport",
    "city": "Tunis",
    "country": "Tunisia",
    "code": "TUN",
    "late": 36.85100174,
    "long": 10.22719955,
    "region": "Africa/Tunis",
    "status": 1
  },
  {
    "id": 290,
    "airport": "Gafsa Ksar International Airport",
    "city": "Gafsa",
    "country": "Tunisia",
    "code": "GAF",
    "late": 34.42200089,
    "long": 8.822500229,
    "region": "Africa/Tunis",
    "status": 1
  },
  {
    "id": 291,
    "airport": "Gabès Matmata International Airport",
    "city": "Gabes",
    "country": "Tunisia",
    "code": "GAE",
    "late": 33.87689972,
    "long": 10.10330009,
    "region": "Africa/Tunis",
    "status": 1
  },
  {
    "id": 293,
    "airport": "Djerba Zarzis International Airport",
    "city": "Djerba",
    "country": "Tunisia",
    "code": "DJE",
    "late": 33.875,
    "long": 10.7755003,
    "region": "Africa/Tunis",
    "status": 1
  },
  {
    "id": 294,
    "airport": "El Borma Airport",
    "city": "El Borma",
    "country": "Tunisia",
    "code": "EBM",
    "late": 31.70429993,
    "long": 9.254619598,
    "region": "Africa/Tunis",
    "status": 1
  },
  {
    "id": 295,
    "airport": "Sfax Thyna International Airport",
    "city": "Sfax",
    "country": "Tunisia",
    "code": "SFA",
    "late": 34.7179985,
    "long": 10.69099998,
    "region": "Africa/Tunis",
    "status": 1
  },
  {
    "id": 296,
    "airport": "Tozeur Nefta International Airport",
    "city": "Tozeur",
    "country": "Tunisia",
    "code": "TOE",
    "late": 33.93970108,
    "long": 8.110560417,
    "region": "Africa/Tunis",
    "status": 1
  },
  {
    "id": 297,
    "airport": "Niamtougou International Airport",
    "city": "Niatougou",
    "country": "Togo",
    "code": "LRL",
    "late": 9.76733017,
    "long": 1.091249943,
    "region": "Africa/Lome",
    "status": 1
  },
  {
    "id": 298,
    "airport": "Lomé-Tokoin Airport",
    "city": "Lome",
    "country": "Togo",
    "code": "LFW",
    "late": 6.165609837,
    "long": 1.254510045,
    "region": "Africa/Lome",
    "status": 1
  },
  {
    "id": 299,
    "airport": "Antwerp International Airport (Deurne)",
    "city": "Antwerp",
    "country": "Belgium",
    "code": "ANR",
    "late": 51.18939972,
    "long": 4.460279942,
    "region": "Europe/Brussels",
    "status": 1
  },
  {
    "id": 302,
    "airport": "Brussels Airport",
    "city": "Brussels",
    "country": "Belgium",
    "code": "BRU",
    "late": 50.90140152,
    "long": 4.48443985,
    "region": "Europe/Brussels",
    "status": 1
  },
  {
    "id": 304,
    "airport": "Brussels South Charleroi Airport",
    "city": "Charleroi",
    "country": "Belgium",
    "code": "CRL",
    "late": 50.459202,
    "long": 4.45382,
    "region": "Europe/Brussels",
    "status": 1
  },
  {
    "id": 308,
    "airport": "Wevelgem Airport",
    "city": "Kortrijk-vevelgem",
    "country": "Belgium",
    "code": "KJK",
    "late": 50.81719971,
    "long": 3.20472002,
    "region": "Europe/Brussels",
    "status": 1
  },
  {
    "id": 309,
    "airport": "Liège Airport",
    "city": "Liege",
    "country": "Belgium",
    "code": "LGG",
    "late": 50.63740158,
    "long": 5.443220139,
    "region": "Europe/Brussels",
    "status": 1
  },
  {
    "id": 310,
    "airport": "Ostend-Bruges International Airport",
    "city": "Ostend",
    "country": "Belgium",
    "code": "OST",
    "late": 51.19889832,
    "long": 2.862220049,
    "region": "Europe/Brussels",
    "status": 1
  },
  {
    "id": 316,
    "airport": "Zoersel (Oostmalle) Airfield",
    "city": "Zoersel",
    "country": "Belgium",
    "code": "OBL",
    "late": 51.264702,
    "long": 4.75333,
    "region": "Europe/Brussels",
    "status": 1
  },
  {
    "id": 318,
    "airport": "Altenburg-Nobitz Airport",
    "city": "Altenburg",
    "country": "Germany",
    "code": "AOC",
    "late": 50.981945,
    "long": 12.506389,
    "region": "Europe/Berlin",
    "status": 1
  },
  {
    "id": 325,
    "airport": "Riesa-Göhlis Airport",
    "city": "Riesa",
    "country": "Germany",
    "code": "IES",
    "late": 51.29360962,
    "long": 13.35611057,
    "region": "Europe/Berlin",
    "status": 1
  },
  {
    "id": 326,
    "airport": "Rechlin-Lärz Airport",
    "city": "Rechlin-laerz",
    "country": "Germany",
    "code": "REB",
    "late": 53.30638886,
    "long": 12.75222206,
    "region": "Europe/Berlin",
    "status": 1
  },
  {
    "id": 328,
    "airport": "Schönhagen Airport",
    "city": "Schoenhagen",
    "country": "Germany",
    "code": "QXH",
    "late": 52.203609,
    "long": 13.156389,
    "region": "Europe/Berlin",
    "status": 1
  },
  {
    "id": 329,
    "airport": "Barth Airport",
    "city": "Barth",
    "country": "Germany",
    "code": "BBH",
    "late": 54.338253,
    "long": 12.710515,
    "region": "Europe/Berlin",
    "status": 1
  },
  {
    "id": 332,
    "airport": "Magdeburg \"City\" Airport",
    "city": "Magdeburg",
    "country": "Germany",
    "code": "ZMG",
    "late": 52.073612,
    "long": 11.626389,
    "region": "Europe/Berlin",
    "status": 1
  },
  {
    "id": 335,
    "airport": "Cottbus-Drewitz Airport",
    "city": "Cottbus",
    "country": "Germany",
    "code": "CBU",
    "late": 51.889442,
    "long": 14.531944,
    "region": "Europe/Berlin",
    "status": 1
  },
  {
    "id": 337,
    "airport": "Berlin-Schönefeld Airport",
    "city": "Berlin",
    "country": "Germany",
    "code": "SXF",
    "late": 52.380001,
    "long": 13.5225,
    "region": "Europe/Berlin",
    "status": 1
  },
  {
    "id": 338,
    "airport": "Dresden Airport",
    "city": "Dresden",
    "country": "Germany",
    "code": "DRS",
    "late": 51.13280106,
    "long": 13.76720047,
    "region": "Europe/Berlin",
    "status": 1
  },
  {
    "id": 339,
    "airport": "Erfurt Airport",
    "city": "Erfurt",
    "country": "Germany",
    "code": "ERF",
    "late": 50.97980118,
    "long": 10.95810032,
    "region": "Europe/Berlin",
    "status": 1
  },
  {
    "id": 340,
    "airport": "Frankfurt am Main Airport",
    "city": "Frankfurt",
    "country": "Germany",
    "code": "FRA",
    "late": 50.033333,
    "long": 8.570556,
    "region": "Europe/Berlin",
    "status": 1
  },
  {
    "id": 341,
    "airport": "Münster Osnabrück Airport",
    "city": "Munster",
    "country": "Germany",
    "code": "FMO",
    "late": 52.13460159,
    "long": 7.684830189,
    "region": "Europe/Berlin",
    "status": 1
  },
  {
    "id": 342,
    "airport": "Hamburg Airport",
    "city": "Hamburg",
    "country": "Germany",
    "code": "HAM",
    "late": 53.63040161,
    "long": 9.988229752,
    "region": "Europe/Berlin",
    "status": 1
  },
  {
    "id": 343,
    "airport": "Berlin-Tempelhof International Airport",
    "city": "Berlin",
    "country": "Germany",
    "code": "THF",
    "late": 52.47299957,
    "long": 13.40390015,
    "region": "Europe/Berlin",
    "status": 1
  },
  {
    "id": 344,
    "airport": "Cologne Bonn Airport",
    "city": "Cologne",
    "country": "Germany",
    "code": "CGN",
    "late": 50.86589813,
    "long": 7.142739773,
    "region": "Europe/Berlin",
    "status": 1
  },
  {
    "id": 345,
    "airport": "Düsseldorf Airport",
    "city": "Duesseldorf",
    "country": "Germany",
    "code": "DUS",
    "late": 51.289501,
    "long": 6.76678,
    "region": "Europe/Berlin",
    "status": 1
  },
  {
    "id": 346,
    "airport": "Munich Airport",
    "city": "Munich",
    "country": "Germany",
    "code": "MUC",
    "late": 48.353802,
    "long": 11.7861,
    "region": "Europe/Berlin",
    "status": 1
  },
  {
    "id": 347,
    "airport": "Nuremberg Airport",
    "city": "Nuernberg",
    "country": "Germany",
    "code": "NUE",
    "late": 49.498699,
    "long": 11.078056,
    "region": "Europe/Berlin",
    "status": 1
  },
  {
    "id": 348,
    "airport": "Leipzig/Halle Airport",
    "city": "Leipzig",
    "country": "Germany",
    "code": "LEJ",
    "late": 51.423889,
    "long": 12.236389,
    "region": "Europe/Berlin",
    "status": 1
  },
  {
    "id": 349,
    "airport": "Saarbrücken Airport",
    "city": "Saarbruecken",
    "country": "Germany",
    "code": "SCN",
    "late": 49.21459961,
    "long": 7.109509945,
    "region": "Europe/Berlin",
    "status": 1
  },
  {
    "id": 350,
    "airport": "Stuttgart Airport",
    "city": "Stuttgart",
    "country": "Germany",
    "code": "STR",
    "late": 48.68989944,
    "long": 9.221960068,
    "region": "Europe/Berlin",
    "status": 1
  },
  {
    "id": 351,
    "airport": "Berlin-Tegel Airport",
    "city": "Berlin",
    "country": "Germany",
    "code": "TXL",
    "late": 52.5597,
    "long": 13.2877,
    "region": "Europe/Berlin",
    "status": 1
  },
  {
    "id": 352,
    "airport": "Hannover Airport",
    "city": "Hannover",
    "country": "Germany",
    "code": "HAJ",
    "late": 52.46110153,
    "long": 9.685079575,
    "region": "Europe/Berlin",
    "status": 1
  },
  {
    "id": 353,
    "airport": "Bremen Airport",
    "city": "Bremen",
    "country": "Germany",
    "code": "BRE",
    "late": 53.04750061,
    "long": 8.786669731,
    "region": "Europe/Berlin",
    "status": 1
  },
  {
    "id": 354,
    "airport": "Frankfurt-Egelsbach Airport",
    "city": "Egelsbach",
    "country": "Germany",
    "code": "QEF",
    "late": 49.959999,
    "long": 8.645833,
    "region": "Europe/Berlin",
    "status": 1
  },
  {
    "id": 355,
    "airport": "Frankfurt-Hahn Airport",
    "city": "Hahn",
    "country": "Germany",
    "code": "HHN",
    "late": 49.9487,
    "long": 7.26389,
    "region": "Europe/Berlin",
    "status": 1
  },
  {
    "id": 356,
    "airport": "Mannheim-City Airport",
    "city": "Mannheim",
    "country": "Germany",
    "code": "MHG",
    "late": 49.473057,
    "long": 8.514167,
    "region": "Europe/Berlin",
    "status": 1
  },
  {
    "id": 360,
    "airport": "Eisenach-Kindel Airport",
    "city": "Eisenach",
    "country": "Germany",
    "code": "EIB",
    "late": 50.991604,
    "long": 10.47973,
    "region": "Europe/Berlin",
    "status": 1
  },
  {
    "id": 361,
    "airport": "Siegerland Airport",
    "city": "Siegerland",
    "country": "Germany",
    "code": "SGE",
    "late": 50.70769882,
    "long": 8.082969666,
    "region": "Europe/Berlin",
    "status": 1
  },
  {
    "id": 362,
    "airport": "Hamburg-Finkenwerder Airport",
    "city": "Hamburg",
    "country": "Germany",
    "code": "XFW",
    "late": 53.53527832,
    "long": 9.83555603,
    "region": "Europe/Berlin",
    "status": 1
  },
  {
    "id": 363,
    "airport": "Kiel-Holtenau Airport",
    "city": "Kiel",
    "country": "Germany",
    "code": "KEL",
    "late": 54.37944412,
    "long": 10.14527798,
    "region": "Europe/Berlin",
    "status": 1
  },
  {
    "id": 364,
    "airport": "Lübeck Blankensee Airport",
    "city": "Luebeck",
    "country": "Germany",
    "code": "LBC",
    "late": 53.80540085,
    "long": 10.71920013,
    "region": "Europe/Berlin",
    "status": 1
  },
  {
    "id": 368,
    "airport": "Essen Mulheim Airport",
    "city": "Essen",
    "country": "Germany",
    "code": "ESS",
    "late": 51.40230179,
    "long": 6.937329769,
    "region": "Europe/Berlin",
    "status": 1
  },
  {
    "id": 369,
    "airport": "Bielefeld Airport",
    "city": "Bielefeld",
    "country": "Germany",
    "code": "BFE",
    "late": 51.964722,
    "long": 8.544444,
    "region": "Europe/Berlin",
    "status": 1
  },
  {
    "id": 370,
    "airport": "Mönchengladbach Airport",
    "city": "Moenchengladbach",
    "country": "Germany",
    "code": "MGL",
    "late": 51.230278,
    "long": 6.504444,
    "region": "Europe/Berlin",
    "status": 1
  },
  {
    "id": 371,
    "airport": "Paderborn Lippstadt Airport",
    "city": "Paderborn",
    "country": "Germany",
    "code": "PAD",
    "late": 51.61410141,
    "long": 8.616319656,
    "region": "Europe/Berlin",
    "status": 1
  },
  {
    "id": 373,
    "airport": "Dortmund Airport",
    "city": "Dortmund",
    "country": "Germany",
    "code": "DTM",
    "late": 51.5182991,
    "long": 7.612239838,
    "region": "Europe/Berlin",
    "status": 1
  },
  {
    "id": 374,
    "airport": "Augsburg Airport",
    "city": "Augsburg",
    "country": "Germany",
    "code": "AGB",
    "late": 48.425278,
    "long": 10.931667,
    "region": "Europe/Berlin",
    "status": 1
  },
  {
    "id": 378,
    "airport": "Oberpfaffenhofen Airport",
    "city": "Oberpfaffenhofen",
    "country": "Germany",
    "code": "OBF",
    "late": 48.081402,
    "long": 11.2831,
    "region": "Europe/Berlin",
    "status": 1
  },
  {
    "id": 379,
    "airport": "Straubing Airport",
    "city": "Straubing",
    "country": "Germany",
    "code": "RBM",
    "late": 48.90083313,
    "long": 12.51666737,
    "region": "Europe/Berlin",
    "status": 1
  },
  {
    "id": 382,
    "airport": "Friedrichshafen Airport",
    "city": "Friedrichshafen",
    "country": "Germany",
    "code": "FDH",
    "late": 47.67129898,
    "long": 9.511489868,
    "region": "Europe/Berlin",
    "status": 1
  },
  {
    "id": 383,
    "airport": "Schwerin Parchim Airport",
    "city": "Parchim",
    "country": "Germany",
    "code": "SZW",
    "late": 53.426998,
    "long": 11.7834,
    "region": "Europe/Berlin",
    "status": 1
  },
  {
    "id": 386,
    "airport": "Bayreuth Airport",
    "city": "Bayreuth",
    "country": "Germany",
    "code": "BYU",
    "late": 49.985001,
    "long": 11.64,
    "region": "Europe/Berlin",
    "status": 1
  },
  {
    "id": 387,
    "airport": "Burg Feuerstein Airport",
    "city": "Burg Feuerstein",
    "country": "Germany",
    "code": "URD",
    "late": 49.79416656,
    "long": 11.13361073,
    "region": "Europe/Berlin",
    "status": 1
  },
  {
    "id": 388,
    "airport": "Hof-Plauen Airport",
    "city": "Hof",
    "country": "Germany",
    "code": "HOQ",
    "late": 50.28861237,
    "long": 11.85638905,
    "region": "Europe/Berlin",
    "status": 1
  },
  {
    "id": 393,
    "airport": "Zweibrücken Airport",
    "city": "Zweibruecken",
    "country": "Germany",
    "code": "ZQW",
    "late": 49.2094,
    "long": 7.40056,
    "region": "Europe/Berlin",
    "status": 1
  },
  {
    "id": 394,
    "airport": "Donaueschingen-Villingen Airport",
    "city": "Donaueschingen",
    "country": "Germany",
    "code": "ZQL",
    "late": 47.97333145,
    "long": 8.522221565,
    "region": "Europe/Berlin",
    "status": 1
  },
  {
    "id": 399,
    "airport": "Braunschweig-Wolfsburg Airport",
    "city": "Braunschweig",
    "country": "Germany",
    "code": "BWE",
    "late": 52.319199,
    "long": 10.5561,
    "region": "Europe/Berlin",
    "status": 1
  },
  {
    "id": 400,
    "airport": "Kassel-Calden Airport",
    "city": "Kassel",
    "country": "Germany",
    "code": "KSF",
    "late": 51.417273,
    "long": 9.384967,
    "region": "Europe/Berlin",
    "status": 1
  },
  {
    "id": 402,
    "airport": "Bremerhaven Airport",
    "city": "Bremerhaven",
    "country": "Germany",
    "code": "BRV",
    "late": 53.506943,
    "long": 8.572778,
    "region": "Europe/Berlin",
    "status": 1
  },
  {
    "id": 403,
    "airport": "Emden Airport",
    "city": "Emden",
    "country": "Germany",
    "code": "EME",
    "late": 53.391109,
    "long": 7.2275,
    "region": "Europe/Berlin",
    "status": 1
  },
  {
    "id": 405,
    "airport": "Wilhelmshaven-Mariensiel Airport",
    "city": "Wilhelmshaven",
    "country": "Germany",
    "code": "WVN",
    "late": 53.50222015,
    "long": 8.052222252,
    "region": "Europe/Berlin",
    "status": 1
  },
  {
    "id": 406,
    "airport": "Borkum Airport",
    "city": "Borkum",
    "country": "Germany",
    "code": "BMK",
    "late": 53.59639,
    "long": 6.709167,
    "region": "Europe/Berlin",
    "status": 1
  },
  {
    "id": 407,
    "airport": "Norderney Airport",
    "city": "Norderney",
    "country": "Germany",
    "code": "NRD",
    "late": 53.70694351,
    "long": 7.230000019,
    "region": "Europe/Berlin",
    "status": 1
  },
  {
    "id": 408,
    "airport": "Flensburg-Schäferhaus Airport",
    "city": "Flensburg",
    "country": "Germany",
    "code": "FLF",
    "late": 54.7733345,
    "long": 9.378889084,
    "region": "Europe/Berlin",
    "status": 1
  },
  {
    "id": 410,
    "airport": "Westerland Sylt Airport",
    "city": "Westerland",
    "country": "Germany",
    "code": "GWT",
    "late": 54.91320038,
    "long": 8.340470314,
    "region": "Europe/Berlin",
    "status": 1
  },
  {
    "id": 412,
    "airport": "Kärdla Airport",
    "city": "Kardla",
    "country": "Estonia",
    "code": "KDL",
    "late": 58.99079895,
    "long": 22.83069992,
    "region": "Europe/Tallinn",
    "status": 1
  },
  {
    "id": 413,
    "airport": "Kuressaare Airport",
    "city": "Kuressaare",
    "country": "Estonia",
    "code": "URE",
    "late": 58.22990036,
    "long": 22.5095005,
    "region": "Europe/Tallinn",
    "status": 1
  },
  {
    "id": 414,
    "airport": "Pärnu Airport",
    "city": "Parnu",
    "country": "Estonia",
    "code": "EPU",
    "late": 58.41899872,
    "long": 24.4727993,
    "region": "Europe/Tallinn",
    "status": 1
  },
  {
    "id": 415,
    "airport": "Lennart Meri Tallinn Airport",
    "city": "Tallinn-ulemiste International",
    "country": "Estonia",
    "code": "TLL",
    "late": 59.41329956,
    "long": 24.83279991,
    "region": "Europe/Tallinn",
    "status": 1
  },
  {
    "id": 416,
    "airport": "Tartu Airport",
    "city": "Tartu",
    "country": "Estonia",
    "code": "TAY",
    "late": 58.30749893,
    "long": 26.69039917,
    "region": "Europe/Tallinn",
    "status": 1
  },
  {
    "id": 417,
    "airport": "Enontekio Airport",
    "city": "Enontekio",
    "country": "Finland",
    "code": "ENF",
    "late": 68.36260223,
    "long": 23.42429924,
    "region": "Europe/Helsinki",
    "status": 1
  },
  {
    "id": 419,
    "airport": "Halli Airport",
    "city": "Halli",
    "country": "Finland",
    "code": "KEV",
    "late": 61.856039,
    "long": 24.786686,
    "region": "Europe/Helsinki",
    "status": 1
  },
  {
    "id": 420,
    "airport": "Helsinki Malmi Airport",
    "city": "Helsinki",
    "country": "Finland",
    "code": "HEM",
    "late": 60.25460052,
    "long": 25.0428009,
    "region": "Europe/Helsinki",
    "status": 1
  },
  {
    "id": 421,
    "airport": "Helsinki Vantaa Airport",
    "city": "Helsinki",
    "country": "Finland",
    "code": "HEL",
    "late": 60.31719971,
    "long": 24.9633007,
    "region": "Europe/Helsinki",
    "status": 1
  },
  {
    "id": 424,
    "airport": "Hyvinkää Airfield",
    "city": "Hyvinkaa",
    "country": "Finland",
    "code": "HYV",
    "late": 60.65439987,
    "long": 24.8810997,
    "region": "Europe/Helsinki",
    "status": 1
  },
  {
    "id": 427,
    "airport": "Kitee Airport",
    "city": "Kitee",
    "country": "Finland",
    "code": "KTQ",
    "late": 62.1661,
    "long": 30.073601,
    "region": "Europe/Helsinki",
    "status": 1
  },
  {
    "id": 428,
    "airport": "Ivalo Airport",
    "city": "Ivalo",
    "country": "Finland",
    "code": "IVL",
    "late": 68.6072998,
    "long": 27.40530014,
    "region": "Europe/Helsinki",
    "status": 1
  },
  {
    "id": 429,
    "airport": "Joensuu Airport",
    "city": "Joensuu",
    "country": "Finland",
    "code": "JOE",
    "late": 62.66289902,
    "long": 29.60750008,
    "region": "Europe/Helsinki",
    "status": 1
  },
  {
    "id": 430,
    "airport": "Jyvaskyla Airport",
    "city": "Jyvaskyla",
    "country": "Finland",
    "code": "JYV",
    "late": 62.3995018,
    "long": 25.67830086,
    "region": "Europe/Helsinki",
    "status": 1
  },
  {
    "id": 431,
    "airport": "Kauhava Airport",
    "city": "Kauhava",
    "country": "Finland",
    "code": "KAU",
    "late": 63.127102,
    "long": 23.051399,
    "region": "Europe/Helsinki",
    "status": 1
  },
  {
    "id": 432,
    "airport": "Kemi-Tornio Airport",
    "city": "Kemi",
    "country": "Finland",
    "code": "KEM",
    "late": 65.77870178,
    "long": 24.58209991,
    "region": "Europe/Helsinki",
    "status": 1
  },
  {
    "id": 433,
    "airport": "Kajaani Airport",
    "city": "Kajaani",
    "country": "Finland",
    "code": "KAJ",
    "late": 64.28549957,
    "long": 27.69239998,
    "region": "Europe/Helsinki",
    "status": 1
  },
  {
    "id": 434,
    "airport": "Kauhajoki Airport",
    "city": "Kauhajoki",
    "country": "Finland",
    "code": "KHJ",
    "late": 62.46250153,
    "long": 22.39310074,
    "region": "Europe/Helsinki",
    "status": 1
  },
  {
    "id": 435,
    "airport": "Kokkola-Pietarsaari Airport",
    "city": "Kruunupyy",
    "country": "Finland",
    "code": "KOK",
    "late": 63.72119904,
    "long": 23.14310074,
    "region": "Europe/Helsinki",
    "status": 1
  },
  {
    "id": 437,
    "airport": "Kuusamo Airport",
    "city": "Kuusamo",
    "country": "Finland",
    "code": "KAO",
    "late": 65.98760223,
    "long": 29.23940086,
    "region": "Europe/Helsinki",
    "status": 1
  },
  {
    "id": 438,
    "airport": "Kittilä Airport",
    "city": "Kittila",
    "country": "Finland",
    "code": "KTT",
    "late": 67.7009964,
    "long": 24.84679985,
    "region": "Europe/Helsinki",
    "status": 1
  },
  {
    "id": 439,
    "airport": "Kuopio Airport",
    "city": "Kuopio",
    "country": "Finland",
    "code": "KUO",
    "late": 63.00709915,
    "long": 27.79780006,
    "region": "Europe/Helsinki",
    "status": 1
  },
  {
    "id": 440,
    "airport": "Lahti Vesivehmaa Airport",
    "city": "Vesivehmaa",
    "country": "Finland",
    "code": "QLF",
    "late": 61.144199,
    "long": 25.693501,
    "region": "Europe/Helsinki",
    "status": 1
  },
  {
    "id": 441,
    "airport": "Lappeenranta Airport",
    "city": "Lappeenranta",
    "country": "Finland",
    "code": "LPP",
    "late": 61.044601,
    "long": 28.144743,
    "region": "Europe/Helsinki",
    "status": 1
  },
  {
    "id": 442,
    "airport": "Mariehamn Airport",
    "city": "Mariehamn",
    "country": "Finland",
    "code": "MHQ",
    "late": 60.12220001,
    "long": 19.89819908,
    "region": "Europe/Mariehamn",
    "status": 1
  },
  {
    "id": 444,
    "airport": "Mikkeli Airport",
    "city": "Mikkeli",
    "country": "Finland",
    "code": "MIK",
    "late": 61.6866,
    "long": 27.201799,
    "region": "Europe/Helsinki",
    "status": 1
  },
  {
    "id": 446,
    "airport": "Oulu Airport",
    "city": "Oulu",
    "country": "Finland",
    "code": "OUL",
    "late": 64.93009949,
    "long": 25.35460091,
    "region": "Europe/Helsinki",
    "status": 1
  },
  {
    "id": 448,
    "airport": "Pori Airport",
    "city": "Pori",
    "country": "Finland",
    "code": "POR",
    "late": 61.46170044,
    "long": 21.79999924,
    "region": "Europe/Helsinki",
    "status": 1
  },
  {
    "id": 453,
    "airport": "Rovaniemi Airport",
    "city": "Rovaniemi",
    "country": "Finland",
    "code": "RVN",
    "late": 66.56479645,
    "long": 25.83040047,
    "region": "Europe/Helsinki",
    "status": 1
  },
  {
    "id": 455,
    "airport": "Savonlinna Airport",
    "city": "Savonlinna",
    "country": "Finland",
    "code": "SVL",
    "late": 61.94309998,
    "long": 28.94510078,
    "region": "Europe/Helsinki",
    "status": 1
  },
  {
    "id": 457,
    "airport": "Sodankyla Airport",
    "city": "Sodankyla",
    "country": "Finland",
    "code": "SOT",
    "late": 67.39499664,
    "long": 26.61910057,
    "region": "Europe/Helsinki",
    "status": 1
  },
  {
    "id": 458,
    "airport": "Tampere-Pirkkala Airport",
    "city": "Tampere",
    "country": "Finland",
    "code": "TMP",
    "late": 61.41410065,
    "long": 23.60440063,
    "region": "Europe/Helsinki",
    "status": 1
  },
  {
    "id": 460,
    "airport": "Turku Airport",
    "city": "Turku",
    "country": "Finland",
    "code": "TKU",
    "late": 60.51409912,
    "long": 22.26280022,
    "region": "Europe/Helsinki",
    "status": 1
  },
  {
    "id": 461,
    "airport": "Utti Air Base",
    "city": "Utti",
    "country": "Finland",
    "code": "UTI",
    "late": 60.89640045,
    "long": 26.93840027,
    "region": "Europe/Helsinki",
    "status": 1
  },
  {
    "id": 462,
    "airport": "Vaasa Airport",
    "city": "Vaasa",
    "country": "Finland",
    "code": "VAA",
    "late": 63.05070114,
    "long": 21.7621994,
    "region": "Europe/Helsinki",
    "status": 1
  },
  {
    "id": 463,
    "airport": "Varkaus Airport",
    "city": "Varkaus",
    "country": "Finland",
    "code": "VRK",
    "late": 62.17110062,
    "long": 27.86860085,
    "region": "Europe/Helsinki",
    "status": 1
  },
  {
    "id": 464,
    "airport": "Ylivieska Airfield",
    "city": "Ylivieska-raudaskyla",
    "country": "Finland",
    "code": "YLI",
    "late": 64.0547222,
    "long": 24.7252778,
    "region": "Europe/Helsinki",
    "status": 1
  },
  {
    "id": 465,
    "airport": "Belfast International Airport",
    "city": "Belfast",
    "country": "United Kingdom",
    "code": "BFS",
    "late": 54.65750122,
    "long": -6.215829849,
    "region": "Europe/London",
    "status": 1
  },
  {
    "id": 466,
    "airport": "St Angelo Airport",
    "city": "Enniskillen",
    "country": "United Kingdom",
    "code": "ENK",
    "late": 54.39889908,
    "long": -7.651669979,
    "region": "Europe/London",
    "status": 1
  },
  {
    "id": 467,
    "airport": "George Best Belfast City Airport",
    "city": "Belfast",
    "country": "United Kingdom",
    "code": "BHD",
    "late": 54.61809921,
    "long": -5.872499943,
    "region": "Europe/London",
    "status": 1
  },
  {
    "id": 468,
    "airport": "City of Derry Airport",
    "city": "Londonderry",
    "country": "United Kingdom",
    "code": "LDY",
    "late": 55.0428009,
    "long": -7.161109924,
    "region": "Europe/London",
    "status": 1
  },
  {
    "id": 469,
    "airport": "Birmingham International Airport",
    "city": "Birmingham",
    "country": "United Kingdom",
    "code": "BHX",
    "late": 52.45389938,
    "long": -1.748029947,
    "region": "Europe/London",
    "status": 1
  },
  {
    "id": 470,
    "airport": "Coventry Airport",
    "city": "Coventry",
    "country": "United Kingdom",
    "code": "CVT",
    "late": 52.36970139,
    "long": -1.479719996,
    "region": "Europe/London",
    "status": 1
  },
  {
    "id": 472,
    "airport": "Gloucestershire Airport",
    "city": "Golouchestershire",
    "country": "United Kingdom",
    "code": "GLO",
    "late": 51.89419937,
    "long": -2.167220116,
    "region": "Europe/London",
    "status": 1
  },
  {
    "id": 475,
    "airport": "Cotswold Airport",
    "city": "Pailton",
    "country": "United Kingdom",
    "code": "GBA",
    "late": 51.668095,
    "long": -2.05694,
    "region": "Europe/London",
    "status": 1
  },
  {
    "id": 478,
    "airport": "Manchester Airport",
    "city": "Manchester",
    "country": "United Kingdom",
    "code": "MAN",
    "late": 53.35369873,
    "long": -2.274950027,
    "region": "Europe/London",
    "status": 1
  },
  {
    "id": 481,
    "airport": "Newquay Cornwall Airport",
    "city": "Newquai",
    "country": "United Kingdom",
    "code": "NQY",
    "late": 50.44060135,
    "long": -4.995409966,
    "region": "Europe/London",
    "status": 1
  },
  {
    "id": 482,
    "airport": "RAF Lyneham",
    "city": "Lyneham",
    "country": "United Kingdom",
    "code": "LYE",
    "late": 51.5051,
    "long": -1.99343,
    "region": "Europe/London",
    "status": 1
  },
  {
    "id": 486,
    "airport": "RNAS Yeovilton",
    "city": "Yeovilton",
    "country": "United Kingdom",
    "code": "YEO",
    "late": 51.00939941,
    "long": -2.638819933,
    "region": "Europe/London",
    "status": 1
  },
  {
    "id": 487,
    "airport": "Haverfordwest Airport",
    "city": "Haverfordwest",
    "country": "United Kingdom",
    "code": "HAW",
    "late": 51.83309937,
    "long": -4.961110115,
    "region": "Europe/London",
    "status": 1
  },
  {
    "id": 488,
    "airport": "Cardiff International Airport",
    "city": "Cardiff",
    "country": "United Kingdom",
    "code": "CWL",
    "late": 51.39670181,
    "long": -3.343329906,
    "region": "Europe/London",
    "status": 1
  },
  {
    "id": 489,
    "airport": "Swansea Airport",
    "city": "Swansea",
    "country": "United Kingdom",
    "code": "SWS",
    "late": 51.6053009,
    "long": -4.067830086,
    "region": "Europe/London",
    "status": 1
  },
  {
    "id": 490,
    "airport": "Bristol Airport",
    "city": "Bristol",
    "country": "United Kingdom",
    "code": "BRS",
    "late": 51.382702,
    "long": -2.71909,
    "region": "Europe/London",
    "status": 1
  },
  {
    "id": 491,
    "airport": "Liverpool John Lennon Airport",
    "city": "Liverpool",
    "country": "United Kingdom",
    "code": "LPL",
    "late": 53.33359909,
    "long": -2.849720001,
    "region": "Europe/London",
    "status": 1
  },
  {
    "id": 492,
    "airport": "London Luton Airport",
    "city": "London",
    "country": "United Kingdom",
    "code": "LTN",
    "late": 51.87469864,
    "long": -0.3683330119,
    "region": "Europe/London",
    "status": 1
  },
  {
    "id": 493,
    "airport": "Plymouth City Airport",
    "city": "Plymouth",
    "country": "United Kingdom",
    "code": "PLH",
    "late": 50.422798,
    "long": -4.10583,
    "region": "Europe/London",
    "status": 1
  },
  {
    "id": 494,
    "airport": "Bournemouth Airport",
    "city": "Bournemouth",
    "country": "United Kingdom",
    "code": "BOH",
    "late": 50.77999878,
    "long": -1.842499971,
    "region": "Europe/London",
    "status": 1
  },
  {
    "id": 495,
    "airport": "Southampton Airport",
    "city": "Southampton",
    "country": "United Kingdom",
    "code": "SOU",
    "late": 50.95029831,
    "long": -1.35679996,
    "region": "Europe/London",
    "status": 1
  },
  {
    "id": 496,
    "airport": "Lasham Airport",
    "city": "Lasham",
    "country": "United Kingdom",
    "code": "QLA",
    "late": 51.18719864,
    "long": -1.033499956,
    "region": "Europe/London",
    "status": 1
  },
  {
    "id": 497,
    "airport": "Alderney Airport",
    "city": "Alderney",
    "country": "Guernsey",
    "code": "ACI",
    "late": 49.706104,
    "long": -2.21472,
    "region": "Europe/Guernsey",
    "status": 1
  },
  {
    "id": 498,
    "airport": "Guernsey Airport",
    "city": "Guernsey",
    "country": "Guernsey",
    "code": "GCI",
    "late": 49.43500137,
    "long": -2.601969957,
    "region": "Europe/Guernsey",
    "status": 1
  },
  {
    "id": 499,
    "airport": "Jersey Airport",
    "city": "Jersey",
    "country": "Jersey",
    "code": "JER",
    "late": 49.207901,
    "long": -2.195509911,
    "region": "Europe/Jersey",
    "status": 1
  },
  {
    "id": 500,
    "airport": "Shoreham Airport",
    "city": "Shoreham By Sea",
    "country": "United Kingdom",
    "code": "ESH",
    "late": 50.835602,
    "long": -0.297222,
    "region": "Europe/London",
    "status": 1
  },
  {
    "id": 501,
    "airport": "London Biggin Hill Airport",
    "city": "Biggin Hill",
    "country": "United Kingdom",
    "code": "BQH",
    "late": 51.3307991,
    "long": 0.03249999881,
    "region": "Europe/London",
    "status": 1
  },
  {
    "id": 502,
    "airport": "London Gatwick Airport",
    "city": "London",
    "country": "United Kingdom",
    "code": "LGW",
    "late": 51.148102,
    "long": -0.190278,
    "region": "Europe/London",
    "status": 1
  },
  {
    "id": 503,
    "airport": "London City Airport",
    "city": "London",
    "country": "United Kingdom",
    "code": "LCY",
    "late": 51.505299,
    "long": 0.055278,
    "region": "Europe/London",
    "status": 1
  },
  {
    "id": 504,
    "airport": "Farnborough Airport",
    "city": "Farnborough",
    "country": "United Kingdom",
    "code": "FAB",
    "late": 51.2757988,
    "long": -0.7763329744,
    "region": "Europe/London",
    "status": 1
  },
  {
    "id": 506,
    "airport": "Blackbushe Airport",
    "city": "Blackbushe",
    "country": "United Kingdom",
    "code": "BBS",
    "late": 51.32389832,
    "long": -0.8475000262,
    "region": "Europe/London",
    "status": 1
  },
  {
    "id": 507,
    "airport": "London Heathrow Airport",
    "city": "London",
    "country": "United Kingdom",
    "code": "LHR",
    "late": 51.4706,
    "long": -0.461941,
    "region": "Europe/London",
    "status": 1
  },
  {
    "id": 508,
    "airport": "Southend Airport",
    "city": "Southend",
    "country": "United Kingdom",
    "code": "SEN",
    "late": 51.57139969,
    "long": 0.695555985,
    "region": "Europe/London",
    "status": 1
  },
  {
    "id": 509,
    "airport": "Lydd Airport",
    "city": "Lydd",
    "country": "United Kingdom",
    "code": "LYX",
    "late": 50.95610046,
    "long": 0.9391670227,
    "region": "Europe/London",
    "status": 1
  },
  {
    "id": 510,
    "airport": "Kent International Airport",
    "city": "Manston",
    "country": "United Kingdom",
    "code": "MSE",
    "late": 51.342201,
    "long": 1.34611,
    "region": "Europe/London",
    "status": 1
  },
  {
    "id": 512,
    "airport": "Carlisle Airport",
    "city": "Carlisle",
    "country": "United Kingdom",
    "code": "CAX",
    "late": 54.9375,
    "long": -2.809170008,
    "region": "Europe/London",
    "status": 1
  },
  {
    "id": 514,
    "airport": "Blackpool International Airport",
    "city": "Blackpool",
    "country": "United Kingdom",
    "code": "BLK",
    "late": 53.77170181,
    "long": -3.028609991,
    "region": "Europe/London",
    "status": 1
  },
  {
    "id": 515,
    "airport": "Humberside Airport",
    "city": "Humberside",
    "country": "United Kingdom",
    "code": "HUY",
    "late": 53.57440186,
    "long": -0.3508329988,
    "region": "Europe/London",
    "status": 1
  },
  {
    "id": 516,
    "airport": "Barrow Walney Island Airport",
    "city": "Barrow Island",
    "country": "United Kingdom",
    "code": "BWF",
    "late": 54.1286111,
    "long": -3.2675,
    "region": "Europe/London",
    "status": 1
  },
  {
    "id": 517,
    "airport": "Leeds Bradford Airport",
    "city": "Leeds",
    "country": "United Kingdom",
    "code": "LBA",
    "late": 53.86589813,
    "long": -1.660570025,
    "region": "Europe/London",
    "status": 1
  },
  {
    "id": 518,
    "airport": "Warton Airport",
    "city": "Warton",
    "country": "United Kingdom",
    "code": "WRT",
    "late": 53.745098,
    "long": -2.88306,
    "region": "Europe/London",
    "status": 1
  },
  {
    "id": 519,
    "airport": "Hawarden Airport",
    "city": "Hawarden",
    "country": "United Kingdom",
    "code": "CEG",
    "late": 53.17810059,
    "long": -2.977780104,
    "region": "Europe/London",
    "status": 1
  },
  {
    "id": 520,
    "airport": "Isle of Man Airport",
    "city": "Isle Of Man",
    "country": "Isle of Man",
    "code": "IOM",
    "late": 54.08330154,
    "long": -4.623889923,
    "region": "Europe/Isle_of_Man",
    "status": 1
  },
  {
    "id": 521,
    "airport": "Newcastle Airport",
    "city": "Newcastle",
    "country": "United Kingdom",
    "code": "NCL",
    "late": 55.03749847,
    "long": -1.691669941,
    "region": "Europe/London",
    "status": 1
  },
  {
    "id": 522,
    "airport": "Durham Tees Valley Airport",
    "city": "Teesside",
    "country": "United Kingdom",
    "code": "MME",
    "late": 54.50920105,
    "long": -1.429409981,
    "region": "Europe/London",
    "status": 1
  },
  {
    "id": 523,
    "airport": "East Midlands Airport",
    "city": "East Midlands",
    "country": "United Kingdom",
    "code": "EMA",
    "late": 52.83110046,
    "long": -1.328060031,
    "region": "Europe/London",
    "status": 1
  },
  {
    "id": 529,
    "airport": "Kirkwall Airport",
    "city": "Kirkwall",
    "country": "United Kingdom",
    "code": "KOI",
    "late": 58.95780182,
    "long": -2.904999971,
    "region": "Europe/London",
    "status": 1
  },
  {
    "id": 530,
    "airport": "Sumburgh Airport",
    "city": "Sumburgh",
    "country": "United Kingdom",
    "code": "LSI",
    "late": 59.87889862,
    "long": -1.295560002,
    "region": "Europe/London",
    "status": 1
  },
  {
    "id": 531,
    "airport": "Wick Airport",
    "city": "Wick",
    "country": "United Kingdom",
    "code": "WIC",
    "late": 58.45890045,
    "long": -3.093060017,
    "region": "Europe/London",
    "status": 1
  },
  {
    "id": 532,
    "airport": "Aberdeen Dyce Airport",
    "city": "Aberdeen",
    "country": "United Kingdom",
    "code": "ABZ",
    "late": 57.20190048,
    "long": -2.197779894,
    "region": "Europe/London",
    "status": 1
  },